[
    {
        "id": 369,
        "title": "德來機車行有限公司",
        "address": "彰化縣彰化市永福里中山路2段555號",
        "city": "彰化縣",
        "brand": "山葉",
        "tel": "04-7227555",
        "lat": 24.079402,
        "lon": 120.544981
    },
    {
        "id": 370,
        "title": "銓湧機車有限公司",
        "address": "彰化縣和美鎮和北里彰美路5段296號1樓",
        "city": "彰化縣",
        "brand": "光陽",
        "tel": "04-7553145",
        "lat": 24.1106461,
        "lon": 120.4998712
    },
    {
        "id": 371,
        "title": "順進機車行",
        "address": "彰化縣社頭鄉社頭村員集路2段604號",
        "city": "彰化縣",
        "brand": "光陽",
        "tel": "04-8731277",
        "lat": 23.9047644,
        "lon": 120.5839529
    },
    {
        "id": 372,
        "title": "良英車業行",
        "address": "彰化縣北斗鎮大道里中山路2段233號",
        "city": "彰化縣",
        "brand": "光陽",
        "tel": "04-8882524",
        "lat": 23.8774701,
        "lon": 120.5200149
    },
    {
        "id": 373,
        "title": "祺淵車業有限公司",
        "address": "彰化縣社頭鄉舊社村社斗路1段50號",
        "city": "彰化縣",
        "brand": "山葉",
        "tel": "04-8736727",
        "lat": 23.8982702,
        "lon": 120.590828
    },
    {
        "id": 374,
        "title": "明德機車行",
        "address": "彰化縣芳苑鄉仁愛村斗苑路芳苑段160號",
        "city": "彰化縣",
        "brand": "山葉",
        "tel": "04-8984143",
        "lat": 23.9231745,
        "lon": 120.3217268
    },
    {
        "id": 375,
        "title": "原昌車業有限公司",
        "address": "彰化縣大村鄉美港村中山路1段9號",
        "city": "彰化縣",
        "brand": "光陽",
        "tel": "04-8356089",
        "lat": 23.9742489,
        "lon": 120.571399
    },
    {
        "id": 376,
        "title": "東陽機車行",
        "address": "彰化縣社頭鄉社頭村員集路2段305號",
        "city": "彰化縣",
        "brand": "三陽",
        "tel": "04-8732927",
        "lat": 23.9002407,
        "lon": 120.5871424
    },
    {
        "id": 377,
        "title": "鋐展車業股份有限公司",
        "address": "彰化縣秀水鄉番花路428號",
        "city": "彰化縣",
        "brand": "光陽",
        "tel": "04-7688860",
        "lat": 24.0132629,
        "lon": 120.5097069
    },
    {
        "id": 378,
        "title": "安詮車業有限公司",
        "address": "彰化縣花壇鄉花壇村花壇街2號1、2樓",
        "city": "彰化縣",
        "brand": "光陽",
        "tel": "04-7863948",
        "lat": 24.0204039,
        "lon": 120.540575
    },
    {
        "id": 379,
        "title": "良美機車企業行",
        "address": "彰化縣芬園鄉芬園村芬草路2段159號",
        "city": "彰化縣",
        "brand": "三陽",
        "tel": "049-2522810",
        "lat": 24.0135726,
        "lon": 120.6321672
    },
    {
        "id": 380,
        "title": "山陽輪業有限公司",
        "address": "彰化縣員林市三義里中山路1段519號",
        "city": "彰化縣",
        "brand": "三陽",
        "tel": "04-8323501",
        "lat": 23.953574,
        "lon": 120.567533
    },
    {
        "id": 381,
        "title": "冠緯車業有限公司",
        "address": "彰化縣員林市三信里大同路2段345號",
        "city": "彰化縣",
        "brand": "三陽",
        "tel": "04-8323040",
        "lat": 23.968912,
        "lon": 120.571686
    },
    {
        "id": 382,
        "title": "和平機車行",
        "address": "彰化縣員林市和平里中山路2段21號",
        "city": "彰化縣",
        "brand": "山葉",
        "tel": "04-8322357",
        "lat": 23.960057,
        "lon": 120.570518
    },
    {
        "id": 383,
        "title": "建新機車行",
        "address": "彰化縣永靖鄉瑚璉村中山路2段125號",
        "city": "彰化縣",
        "brand": "台鈴",
        "tel": "04-8224826",
        "lat": 23.921388,
        "lon": 120.5497671
    },
    {
        "id": 384,
        "title": "大益機車行",
        "address": "彰化縣員林市三多里中山路2段558號",
        "city": "彰化縣",
        "brand": "光陽",
        "tel": "04-8333173",
        "lat": 23.9729036,
        "lon": 120.5717212
    },
    {
        "id": 385,
        "title": "吉茂車業有限公司",
        "address": "彰化縣員林市黎明里中正路67號",
        "city": "彰化縣",
        "brand": "三陽",
        "tel": "04-8323991",
        "lat": 23.9509255,
        "lon": 120.5756214
    },
    {
        "id": 386,
        "title": "新勝輪機車行",
        "address": "彰化縣埔心鄉太平村中山路60號",
        "city": "彰化縣",
        "brand": "光陽",
        "tel": "04-8323602",
        "lat": 23.9387174,
        "lon": 120.5591465
    },
    {
        "id": 387,
        "title": "泉興機車股份有限公司",
        "address": "彰化縣鹿港鎮泰興里彰鹿路8段20號",
        "city": "彰化縣",
        "brand": "三陽",
        "tel": "04-7772363",
        "lat": 24.049657,
        "lon": 120.439082
    },
    {
        "id": 388,
        "title": "泰安機車行",
        "address": "彰化縣鹿港鎮永安里民權路27號",
        "city": "彰化縣",
        "brand": "三陽",
        "tel": "04-7775291",
        "lat": 24.0584981,
        "lon": 120.4384485
    },
    {
        "id": 389,
        "title": "連陞車業有限公司",
        "address": "彰化縣鹿港鎮景福里民族路30號",
        "city": "彰化縣",
        "brand": "光陽",
        "tel": "04-7773429",
        "lat": 24.056625,
        "lon": 120.4370699
    },
    {
        "id": 390,
        "title": "昌盛車業有限公司",
        "address": "彰化縣溪州鄉瓦厝村溪林路40號",
        "city": "彰化縣",
        "brand": "光陽",
        "tel": "04-8895286",
        "lat": 23.8536566,
        "lon": 120.4901387
    },
    {
        "id": 391,
        "title": "春興機車行",
        "address": "彰化縣北斗鎮居仁里地政路328號",
        "city": "彰化縣",
        "brand": "三陽",
        "tel": "04-8884783",
        "lat": 23.8744427,
        "lon": 120.5269204
    },
    {
        "id": 392,
        "title": "富勝輪業有限公司",
        "address": "彰化縣北斗鎮西德里斗苑路1段318號",
        "city": "彰化縣",
        "brand": "山葉",
        "tel": "04-8887711",
        "lat": 23.8722042,
        "lon": 120.5204252
    },
    {
        "id": 393,
        "title": "裕興機車行",
        "address": "彰化縣永靖鄉同安村永福路1段578號",
        "city": "彰化縣",
        "brand": "三陽",
        "tel": "04-8222168",
        "lat": 23.9247259,
        "lon": 120.5304443
    },
    {
        "id": 394,
        "title": "信源車業有限公司",
        "address": "彰化縣田中鎮南路里員集路1段915號",
        "city": "彰化縣",
        "brand": "三陽",
        "tel": "04-8741658",
        "lat": 23.8517799,
        "lon": 120.5896323
    },
    {
        "id": 395,
        "title": "隆盛機車行",
        "address": "彰化縣田中鎮中潭里員集路3段225號",
        "city": "彰化縣",
        "brand": "山葉",
        "tel": "04-8742093",
        "lat": 23.8702866,
        "lon": 120.5871902
    },
    {
        "id": 396,
        "title": "千暉機車行有限公司",
        "address": "彰化縣和美鎮嘉寶里彰新路5段105號1樓",
        "city": "彰化縣",
        "brand": "山葉",
        "tel": "04-7563769",
        "lat": 24.129202,
        "lon": 120.512276
    },
    {
        "id": 397,
        "title": "正一車業有限公司",
        "address": "彰化縣花壇鄉花壇村中山路1段411號1樓",
        "city": "彰化縣",
        "brand": "光陽",
        "tel": "04-7861038",
        "lat": 24.0245999,
        "lon": 120.540229
    },
    {
        "id": 398,
        "title": "越發車業有限公司",
        "address": "彰化縣永靖鄉五汴村中山路3段350號",
        "city": "彰化縣",
        "brand": "光陽",
        "tel": "04-8235492",
        "lat": 23.9356884,
        "lon": 120.5563391
    },
    {
        "id": 399,
        "title": "全友輪業有限公司",
        "address": "彰化縣員林市和平里中山路2段85之10號",
        "city": "彰化縣",
        "brand": "山葉",
        "tel": "04-8399899",
        "lat": 23.9619389,
        "lon": 120.5706058
    },
    {
        "id": 400,
        "title": "采和車業有限公司",
        "address": "彰化縣員林市和平里中山路2段36號",
        "city": "彰化縣",
        "brand": "光陽",
        "tel": "04-8321017",
        "lat": 23.9604382,
        "lon": 120.570703
    },
    {
        "id": 401,
        "title": "信倡機車行",
        "address": "彰化縣員林市惠來里民生路199號",
        "city": "彰化縣",
        "brand": "三陽",
        "tel": "04-8355967",
        "lat": 23.9560049,
        "lon": 120.571174
    },
    {
        "id": 402,
        "title": "宏順機車行",
        "address": "彰化縣員林市三義里員鹿路75號",
        "city": "彰化縣",
        "brand": "三陽",
        "tel": "04-8356570",
        "lat": 23.9562673,
        "lon": 120.5675252
    },
    {
        "id": 403,
        "title": "昌益機車行",
        "address": "彰化縣埤頭鄉合興村彰水路3段439號",
        "city": "彰化縣",
        "brand": "三陽",
        "tel": "04-8922098",
        "lat": 23.8905809,
        "lon": 120.4587772
    },
    {
        "id": 404,
        "title": "大昇車行",
        "address": "彰化縣鹿港鎮順興里鹿草路一段1號",
        "city": "彰化縣",
        "brand": "三陽",
        "tel": "04-7773239",
        "lat": 24.0600059,
        "lon": 120.432338
    },
    {
        "id": 405,
        "title": "聖豐車業商行",
        "address": "彰化縣溪洲鄉瓦厝村中山路三段391號",
        "city": "彰化縣",
        "brand": "三陽",
        "tel": "04-8895132",
        "lat": 23.8529037,
        "lon": 120.4955867
    },
    {
        "id": 406,
        "title": "機動力車業",
        "address": "彰化縣溪湖鎮西環路493號1樓",
        "city": "彰化縣",
        "brand": "光陽",
        "tel": "04-8815110",
        "lat": 23.9635992,
        "lon": 120.4783127
    },
    {
        "id": 407,
        "title": "穩發車業行",
        "address": "彰化縣溪湖鎮光平里彰水路3段456、458號1樓",
        "city": "彰化縣",
        "brand": "三陽",
        "tel": "04-8855973",
        "lat": 23.963302,
        "lon": 120.4801234
    },
    {
        "id": 408,
        "title": "東隆機車有限公司",
        "address": "彰化縣溪湖鎮湖東里員鹿路2段526號",
        "city": "彰化縣",
        "brand": "光陽",
        "tel": "04-8810261",
        "lat": 23.9573874,
        "lon": 120.4836513
    },
    {
        "id": 409,
        "title": "信利機車行",
        "address": "彰化縣彰化市中山路1段582號",
        "city": "彰化縣",
        "brand": "光陽",
        "tel": "04-7253657",
        "lat": 23.913001,
        "lon": 120.543972
    },
    {
        "id": 410,
        "title": "瑞挺車業行",
        "address": "彰化縣彰化市永生里中山路2段401號",
        "city": "彰化縣",
        "brand": "光陽",
        "tel": "04-7241930",
        "lat": 24.075651,
        "lon": 120.543899
    },
    {
        "id": 411,
        "title": "光展車業有限公司",
        "address": "彰化縣彰化市永福里中山路2段531號",
        "city": "彰化縣",
        "brand": "光陽",
        "tel": "04-7220900",
        "lat": 24.0790524,
        "lon": 120.5448291
    },
    {
        "id": 412,
        "title": "金馬機車行",
        "address": "彰化縣彰化市永福里中山路2段549號1、2樓",
        "city": "彰化縣",
        "brand": "三陽",
        "tel": "04-7223724",
        "lat": 24.0793,
        "lon": 120.544935
    },
    {
        "id": 413,
        "title": "萬能發機車行",
        "address": "彰化縣彰化市富貴里中正路2段309號1、2樓",
        "city": "彰化縣",
        "brand": "光陽",
        "tel": "04-7227571",
        "lat": 24.0752719,
        "lon": 120.536991
    },
    {
        "id": 414,
        "title": "英輪車業行",
        "address": "彰化縣彰化市永生里成功路2號1、2樓",
        "city": "彰化縣",
        "brand": "三陽",
        "tel": "04-7224315",
        "lat": 24.074831,
        "lon": 120.5413765
    },
    {
        "id": 415,
        "title": "宏進機車行",
        "address": "彰化縣彰化市莿桐里彰水路50-1號",
        "city": "彰化縣",
        "brand": "三陽",
        "tel": "04-7632227",
        "lat": 24.0620813,
        "lon": 120.5191294
    },
    {
        "id": 416,
        "title": "六順輪業行",
        "address": "彰化縣彰化市忠權里辭修路128巷32號1樓",
        "city": "彰化縣",
        "brand": "三陽",
        "tel": "04-7240758",
        "lat": 24.086194,
        "lon": 120.5366698
    },
    {
        "id": 417,
        "title": "全美機車行",
        "address": "彰化縣福興鄉橋頭村彰鹿路7段467之1號1、2樓",
        "city": "彰化縣",
        "brand": "光陽",
        "tel": "04-7787774",
        "lat": 24.047655,
        "lon": 120.4453042
    },
    {
        "id": 418,
        "title": "財(金原) 機車行",
        "address": "彰化縣彰化市延平里大埔路482號",
        "city": "彰化縣",
        "brand": "山葉",
        "tel": "04-7137766",
        "lat": 24.064145,
        "lon": 120.543029
    },
    {
        "id": 419,
        "title": "進昌機車行",
        "address": "彰化縣彰化市延平里大埔路586號",
        "city": "彰化縣",
        "brand": "三陽",
        "tel": "04-7115269",
        "lat": 24.066304,
        "lon": 120.542804
    },
    {
        "id": 420,
        "title": "順達機車零件行",
        "address": "彰化縣彰化市和調里中山路3段21-1號",
        "city": "彰化縣",
        "brand": "山葉",
        "tel": "04-7224817",
        "lat": 24.084667,
        "lon": 120.553433
    },
    {
        "id": 421,
        "title": "富晟龍機車行",
        "address": "彰化縣彰化市福安里中山路2段265號",
        "city": "彰化縣",
        "brand": "公會",
        "tel": "04-7243898",
        "lat": 24.0724419,
        "lon": 120.5428727
    },
    {
        "id": 422,
        "title": "三民機車行",
        "address": "彰化縣彰化市文化里中民街39號",
        "city": "彰化縣",
        "brand": "光陽",
        "tel": "04-7232749",
        "lat": 24.0850913,
        "lon": 120.5472068
    },
    {
        "id": 423,
        "title": "聯全機車行",
        "address": "彰化縣彰化市中央里中華路226號",
        "city": "彰化縣",
        "brand": "三陽",
        "tel": "04-7230770",
        "lat": 24.0780313,
        "lon": 120.5384645
    },
    {
        "id": 424,
        "title": "和益機車行",
        "address": "彰化縣彰化市民生里永安街195號",
        "city": "彰化縣",
        "brand": "山葉",
        "tel": "04-7247630",
        "lat": 24.0876469,
        "lon": 120.5445522
    },
    {
        "id": 425,
        "title": "鑫輝車業行",
        "address": "彰化縣彰化市民生里民生路406號",
        "city": "彰化縣",
        "brand": "三陽",
        "tel": "04-7238070",
        "lat": 24.0849839,
        "lon": 120.542244
    },
    {
        "id": 426,
        "title": "和記機車行",
        "address": "彰化縣彰化市中正路2段559號1、2樓",
        "city": "彰化縣",
        "brand": "光陽",
        "tel": "04-7260339",
        "lat": 24.069989,
        "lon": 120.536004
    },
    {
        "id": 427,
        "title": "新輪機車材料行",
        "address": "彰化縣彰化市忠權里自強南路148號",
        "city": "彰化縣",
        "brand": "三陽",
        "tel": "04-7265977",
        "lat": 24.0852583,
        "lon": 120.5349107
    },
    {
        "id": 428,
        "title": "國斌機車行",
        "address": "彰化縣彰化市下廍里茄苳路1段17號",
        "city": "彰化縣",
        "brand": "三陽",
        "tel": "04-7237200",
        "lat": 24.088835,
        "lon": 120.544351
    },
    {
        "id": 429,
        "title": "順立機車行",
        "address": "彰化縣彰化市泰和路2段390號1樓",
        "city": "彰化縣",
        "brand": "光陽",
        "tel": "04-7271703",
        "lat": 24.0953936,
        "lon": 120.5558972
    },
    {
        "id": 430,
        "title": "明洲機車店",
        "address": "彰化縣彰化市莿桐里彰水路118號1、2樓",
        "city": "彰化縣",
        "brand": "光陽",
        "tel": "04-7524766",
        "lat": 24.0602437,
        "lon": 120.517938
    },
    {
        "id": 431,
        "title": "勝興機車行",
        "address": "彰化縣彰化市福山里彰南路1段283、285號",
        "city": "彰化縣",
        "brand": "三陽",
        "tel": "04-7322888",
        "lat": 24.0863119,
        "lon": 120.5726731
    },
    {
        "id": 432,
        "title": "旭發機車行",
        "address": "彰化縣彰化市大竹里彰南路2段108號",
        "city": "彰化縣",
        "brand": "三陽",
        "tel": "04-7384997",
        "lat": 24.0850459,
        "lon": 120.579361
    },
    {
        "id": 433,
        "title": "三永機車行",
        "address": "彰化縣彰化市大竹里彰南路2段2號1樓",
        "city": "彰化縣",
        "brand": "光陽",
        "tel": "04-7385906",
        "lat": 24.0853902,
        "lon": 120.5768806
    },
    {
        "id": 434,
        "title": "幃祥有限公司",
        "address": "彰化縣彰化市忠孝里辭修路66號1樓",
        "city": "彰化縣",
        "brand": "光陽",
        "tel": "04-7242209",
        "lat": 24.0877803,
        "lon": 120.5385663
    },
    {
        "id": 435,
        "title": "承益機車行",
        "address": "彰化縣二林鎮東和里大成路1段154號",
        "city": "彰化縣",
        "brand": "山葉",
        "tel": "04-8961376",
        "lat": 23.8986804,
        "lon": 120.3719749
    },
    {
        "id": 436,
        "title": "宏興機車行",
        "address": "彰化縣二林鎮北平里二溪路1段93號",
        "city": "彰化縣",
        "brand": "三陽",
        "tel": "04-8961546",
        "lat": 23.9017467,
        "lon": 120.3712068
    },
    {
        "id": 437,
        "title": "上揚機車行",
        "address": "彰化縣大村鄉加錫村加錫一巷7號",
        "city": "彰化縣",
        "brand": "光陽",
        "tel": "04-8525584",
        "lat": 23.9846744,
        "lon": 120.5260935
    },
    {
        "id": 438,
        "title": "進達車業有限公司",
        "address": "彰化縣永靖鄉永西村瑚璉路365號1樓",
        "city": "彰化縣",
        "brand": "光陽",
        "tel": "04-8239110",
        "lat": 23.9234888,
        "lon": 120.5452658
    },
    {
        "id": 439,
        "title": "新健興機車行",
        "address": "彰化縣永靖鄉永北村瑚璉路455號",
        "city": "彰化縣",
        "brand": "山葉",
        "tel": "04-8235172",
        "lat": 23.9226814,
        "lon": 120.5433809
    },
    {
        "id": 440,
        "title": "金興機車行",
        "address": "彰化縣永靖鄉東寧村永興路2段169號",
        "city": "彰化縣",
        "brand": "光陽",
        "tel": "04-8224246",
        "lat": 23.923833,
        "lon": 120.561682
    },
    {
        "id": 441,
        "title": "清敏機車行",
        "address": "彰化縣田中鎮沙崙里中州路2段447號",
        "city": "彰化縣",
        "brand": "光陽",
        "tel": "04-8743183",
        "lat": 23.8521663,
        "lon": 120.5735114
    },
    {
        "id": 442,
        "title": "佑祥機車行",
        "address": "彰化縣田中鎮北路里復興路583號",
        "city": "彰化縣",
        "brand": "光陽",
        "tel": "04-8741200",
        "lat": 23.8619882,
        "lon": 120.5917317
    },
    {
        "id": 443,
        "title": "聿泰機車行",
        "address": "彰化縣田中鎮北路里復興路615號",
        "city": "彰化縣",
        "brand": "台鈴",
        "tel": "04-8750322",
        "lat": 23.8618443,
        "lon": 120.5911202
    },
    {
        "id": 444,
        "title": "建成機車行",
        "address": "彰化縣田中鎮碧峰里中南路2段571號",
        "city": "彰化縣",
        "brand": "三陽",
        "tel": "04-8743730",
        "lat": 23.8529077,
        "lon": 120.6023611
    },
    {
        "id": 445,
        "title": "億興機車行",
        "address": "彰化縣秀水鄉安東村中山路270號",
        "city": "彰化縣",
        "brand": "光陽",
        "tel": "04-7681717",
        "lat": 24.035427,
        "lon": 120.503839
    },
    {
        "id": 446,
        "title": "廣福機車行",
        "address": "彰化縣田尾鄉饒平村中山路1段368號",
        "city": "彰化縣",
        "brand": "摩特",
        "tel": "04-8833054",
        "lat": 23.889701,
        "lon": 120.526924
    },
    {
        "id": 447,
        "title": "名峯機車行",
        "address": "彰化縣田尾鄉溪畔村中山路2段430號",
        "city": "彰化縣",
        "brand": "山葉",
        "tel": "04-8247568",
        "lat": 23.90213,
        "lon": 120.5378479
    },
    {
        "id": 448,
        "title": "海隆工業社",
        "address": "彰化縣秀水鄉埔崙村彰水路2段381號",
        "city": "彰化縣",
        "brand": "光陽",
        "tel": "04-7692127",
        "lat": 24.0271969,
        "lon": 120.493578
    },
    {
        "id": 449,
        "title": "伸益機車有限公司",
        "address": "彰化縣伸港鄉新港村中山東路118號",
        "city": "彰化縣",
        "brand": "三陽",
        "tel": "04-7998662",
        "lat": 24.1474139,
        "lon": 120.4879881
    },
    {
        "id": 450,
        "title": "政記車業股份有限公司",
        "address": "彰化縣秀水鄉福安村彰水路2段635號",
        "city": "彰化縣",
        "brand": "山葉",
        "tel": "04-7693047",
        "lat": 24.0315993,
        "lon": 120.4973482
    },
    {
        "id": 451,
        "title": "勝順機車行",
        "address": "彰化縣秀水鄉鶴鳴村彰鹿路406號",
        "city": "彰化縣",
        "brand": "三陽",
        "tel": "04-7692507",
        "lat": 24.0499042,
        "lon": 120.4931847
    },
    {
        "id": 452,
        "title": "和興機車行",
        "address": "彰化縣和美鎮竹營里美寮路2段495號",
        "city": "彰化縣",
        "brand": "山葉",
        "tel": "04-7552788",
        "lat": 24.1131419,
        "lon": 120.503566
    },
    {
        "id": 453,
        "title": "偉煌機車實業有限公司",
        "address": "彰化縣和美鎮愛群路13號",
        "city": "彰化縣",
        "brand": "三陽",
        "tel": "04-7556056",
        "lat": 24.1111237,
        "lon": 120.4985513
    },
    {
        "id": 454,
        "title": "紘尚車業有限公司",
        "address": "彰化縣和美鎮和北里彰美路6段66號",
        "city": "彰化縣",
        "brand": "三陽",
        "tel": "04-7553176",
        "lat": 24.113654,
        "lon": 120.49741
    },
    {
        "id": 455,
        "title": "裕木機車行",
        "address": "彰化縣和美鎮鎮平里彰草路2段674號",
        "city": "彰化縣",
        "brand": "三陽",
        "tel": "04-7526391",
        "lat": 24.08167,
        "lon": 120.499733
    },
    {
        "id": 456,
        "title": "鴻安車業有限公司",
        "address": "彰化縣彰化市復興里中山路3段290號",
        "city": "彰化縣",
        "brand": "三陽",
        "tel": "04-7257565",
        "lat": 24.086523,
        "lon": 120.560644
    },
    {
        "id": 457,
        "title": "富村機車行",
        "address": "彰化縣和美鎮犁盛里彰新路2段313號1、2樓",
        "city": "彰化縣",
        "brand": "光陽",
        "tel": "04-7355185",
        "lat": 24.1000674,
        "lon": 120.5347095
    },
    {
        "id": 458,
        "title": "實用車業有限公司",
        "address": "彰化縣彰化市信義里中正路1段396號",
        "city": "彰化縣",
        "brand": "山葉",
        "tel": "04-7222062",
        "lat": 24.082935,
        "lon": 120.543419
    },
    {
        "id": 459,
        "title": "銘松車行",
        "address": "彰化縣彰化市阿夷里福成街149號",
        "city": "彰化縣",
        "brand": "台鈴",
        "tel": "04-7245629",
        "lat": 24.095968,
        "lon": 120.5531978
    },
    {
        "id": 460,
        "title": "全陽機車行",
        "address": "彰化縣彰化市永福里光復路33號",
        "city": "彰化縣",
        "brand": "三陽",
        "tel": "04-7222030",
        "lat": 24.080827,
        "lon": 120.544952
    },
    {
        "id": 461,
        "title": "昇佳機車行",
        "address": "彰化縣社頭鄉舊社村忠義路764號",
        "city": "彰化縣",
        "brand": "三陽",
        "tel": "04-8738551",
        "lat": 23.8994689,
        "lon": 120.5923215
    },
    {
        "id": 462,
        "title": "朝生機車行",
        "address": "彰化縣彰化市牛埔里彰南路3段146號",
        "city": "彰化縣",
        "brand": "山葉",
        "tel": "04-7381872",
        "lat": 24.0820489,
        "lon": 120.5961367
    },
    {
        "id": 463,
        "title": "銘隆車業有限公司",
        "address": "彰化縣彰化市磚磘里彰草路417號",
        "city": "彰化縣",
        "brand": "光陽",
        "tel": "04-7525029",
        "lat": 24.0776118,
        "lon": 120.5222116
    },
    {
        "id": 464,
        "title": "二水永興有限公司",
        "address": "彰化縣二水鄉聖化村員集路3段594號",
        "city": "彰化縣",
        "brand": "光陽",
        "tel": "04-8792451",
        "lat": 23.8086532,
        "lon": 120.6170592
    },
    {
        "id": 465,
        "title": "正全機車有限公司",
        "address": "彰化縣二林鎮南光里大成路1段372號",
        "city": "彰化縣",
        "brand": "山葉",
        "tel": "04-8961539",
        "lat": 23.8969114,
        "lon": 120.3670246
    },
    {
        "id": 466,
        "title": "宏隆機車行",
        "address": "彰化縣二林鎮北平里新生路94號",
        "city": "彰化縣",
        "brand": "光陽",
        "tel": "04-8960611",
        "lat": 23.9015521,
        "lon": 120.3682333
    },
    {
        "id": 467,
        "title": "瑞榮車業有限公司",
        "address": "彰化縣秀水鄉鶴鳴村民主街215號",
        "city": "彰化縣",
        "brand": "山葉",
        "tel": "04-7697242",
        "lat": 24.05796,
        "lon": 120.495752
    },
    {
        "id": 468,
        "title": "興龍機車行",
        "address": "彰化縣社頭鄉仁雅村員集路1段889號",
        "city": "彰化縣",
        "brand": "山葉",
        "tel": "04-8731662",
        "lat": 23.893747,
        "lon": 120.5880259
    },
    {
        "id": 469,
        "title": "正大機車行",
        "address": "彰化縣芳苑鄉福榮村上林路路上段494號",
        "city": "彰化縣",
        "brand": "光陽",
        "tel": "04-8982242",
        "lat": 23.8924381,
        "lon": 120.3332038
    },
    {
        "id": 470,
        "title": "新發順機車行",
        "address": "彰化縣芳苑鄉王功村芳漢路王功段506號",
        "city": "彰化縣",
        "brand": "三陽",
        "tel": "04-8932283",
        "lat": 23.964798,
        "lon": 120.340459
    },
    {
        "id": 471,
        "title": "如來發機車行",
        "address": "彰化縣芳苑鄉王功村芳漢路王功段548號",
        "city": "彰化縣",
        "brand": "三陽",
        "tel": "04-8932365",
        "lat": 23.965657,
        "lon": 120.341066
    },
    {
        "id": 472,
        "title": "新永順機車行",
        "address": "彰化縣芳苑鄉建平村二溪路草2段612號",
        "city": "彰化縣",
        "brand": "三陽",
        "tel": "04-8862368",
        "lat": 23.9581402,
        "lon": 120.3864427
    },
    {
        "id": 473,
        "title": "欣欣機車行",
        "address": "彰化縣花壇鄉中庄村中山路1段69-1號",
        "city": "彰化縣",
        "brand": "光陽",
        "tel": "04-7868787",
        "lat": 24.0110032,
        "lon": 120.55202
    },
    {
        "id": 474,
        "title": "金旺機車行",
        "address": "彰化縣花壇鄉永春村彰員路1段251號",
        "city": "彰化縣",
        "brand": "三陽",
        "tel": "04-7868231",
        "lat": 24.0119121,
        "lon": 120.5743469
    },
    {
        "id": 475,
        "title": "松輪機車行",
        "address": "彰化縣花壇鄉金墩村中山路1段199-2號",
        "city": "彰化縣",
        "brand": "三陽",
        "tel": "04-7864178",
        "lat": 24.0161085,
        "lon": 120.5499639
    },
    {
        "id": 476,
        "title": "信一機車行",
        "address": "彰化縣花壇鄉花壇村中山路1段395號",
        "city": "彰化縣",
        "brand": "山葉",
        "tel": "04-7862999",
        "lat": 24.0243659,
        "lon": 120.54049
    },
    {
        "id": 477,
        "title": "台裕機車行",
        "address": "彰化縣花壇鄉花壇村中山路1段406號",
        "city": "彰化縣",
        "brand": "三陽",
        "tel": "04-7863622",
        "lat": 24.0248217,
        "lon": 120.5406626
    },
    {
        "id": 478,
        "title": "東信輪車行",
        "address": "彰化縣花壇鄉灣雅村彰員路1段770、772號",
        "city": "彰化縣",
        "brand": "三陽",
        "tel": "04-7865043",
        "lat": 24.0161349,
        "lon": 120.5637288
    },
    {
        "id": 479,
        "title": "湧裕機車行",
        "address": "彰化縣芬園鄉芬園村芬草路2段153號1樓",
        "city": "彰化縣",
        "brand": "光陽",
        "tel": "049-2524207",
        "lat": 24.0136754,
        "lon": 120.6323384
    },
    {
        "id": 480,
        "title": "慶瓏機車行",
        "address": "彰化縣芬園鄉竹林村彰南路4段311號",
        "city": "彰化縣",
        "brand": "光陽",
        "tel": "04-9522031",
        "lat": 24.0177038,
        "lon": 120.6277425
    },
    {
        "id": 481,
        "title": "耀祥輪業有限公司",
        "address": "彰化縣和美鎮和西里道周路713號、715號",
        "city": "彰化縣",
        "brand": "山葉",
        "tel": "04-7558669",
        "lat": 24.1134261,
        "lon": 120.4915454
    },
    {
        "id": 482,
        "title": "瑞和機車行",
        "address": "彰化縣大村鄉黃厝村山腳路42-8號",
        "city": "彰化縣",
        "brand": "光陽",
        "tel": "04-8536666",
        "lat": 23.984009,
        "lon": 120.5894283
    },
    {
        "id": 483,
        "title": "芳裕機車行",
        "address": "彰化縣員林市仁美里育英路155號1樓",
        "city": "彰化縣",
        "brand": "光陽",
        "tel": "04-8340396",
        "lat": 23.9634433,
        "lon": 120.5741062
    },
    {
        "id": 484,
        "title": "永豪機車行",
        "address": "彰化縣員林市振興里員水路一段193號",
        "city": "彰化縣",
        "brand": "三陽",
        "tel": "04-8362182",
        "lat": 23.9497604,
        "lon": 120.6002887
    },
    {
        "id": 485,
        "title": "廣達機車行",
        "address": "彰化縣員林市浮圳里員東路1段536號1樓",
        "city": "彰化縣",
        "brand": "三陽",
        "tel": "04-8313699",
        "lat": 23.961961,
        "lon": 120.588034
    },
    {
        "id": 486,
        "title": "進成機車行",
        "address": "彰化縣員林市崙雅里崙雅巷1之6號",
        "city": "彰化縣",
        "brand": "光陽",
        "tel": "04-8313271",
        "lat": 23.9440501,
        "lon": 120.6001567
    },
    {
        "id": 487,
        "title": "日豐車業行",
        "address": "彰化縣員林市新生里新生路256號",
        "city": "彰化縣",
        "brand": "山葉",
        "tel": "04-8327029",
        "lat": 23.961649,
        "lon": 120.568874
    },
    {
        "id": 488,
        "title": "佑盛機車行",
        "address": "彰化縣埔心鄉東門村中正路1段265號",
        "city": "彰化縣",
        "brand": "山葉",
        "tel": "04-8295207",
        "lat": 23.9513237,
        "lon": 120.5451894
    },
    {
        "id": 489,
        "title": "益來機車行",
        "address": "彰化縣埤頭鄉合興村彰水路3段345號1樓",
        "city": "彰化縣",
        "brand": "山葉",
        "tel": "04-8922381",
        "lat": 23.8882214,
        "lon": 120.4587645
    },
    {
        "id": 490,
        "title": "昇馬車業有限公司",
        "address": "彰化縣埤頭鄉斗苑東路1012號",
        "city": "彰化縣",
        "brand": "山葉",
        "tel": "04-8922308",
        "lat": 23.8908813,
        "lon": 120.4658604
    },
    {
        "id": 491,
        "title": "宏發機車行",
        "address": "彰化縣鹿港鎮頂厝里鹿和路1段299號",
        "city": "彰化縣",
        "brand": "山葉",
        "tel": "04-7763092",
        "lat": 24.0623009,
        "lon": 120.443806
    },
    {
        "id": 492,
        "title": "正新機車行",
        "address": "彰化縣鹿港鎮溝墘里鹿和路3段613號",
        "city": "彰化縣",
        "brand": "山葉",
        "tel": "04-7716746",
        "lat": 24.085348,
        "lon": 120.4799187
    },
    {
        "id": 493,
        "title": "力駿車業行",
        "address": "彰化縣鹿港鎮菜園里菜園路4號1、2樓",
        "city": "彰化縣",
        "brand": "光陽",
        "tel": "04-7774178",
        "lat": 24.0510723,
        "lon": 120.432092
    },
    {
        "id": 494,
        "title": "明利機車行",
        "address": "彰化縣溪州鄉東州村登山路4段333號1樓",
        "city": "彰化縣",
        "brand": "三陽",
        "tel": "04-8896165",
        "lat": 23.8520065,
        "lon": 120.5044466
    },
    {
        "id": 495,
        "title": "友宏輪業有限公司鹿和分公司",
        "address": "彰化縣鹿港鎮頂厝里鹿和路1段363號",
        "city": "彰化縣",
        "brand": "台鈴",
        "tel": "04-7765280",
        "lat": 24.0635209,
        "lon": 120.4456709
    },
    {
        "id": 496,
        "title": "東光機車行",
        "address": "彰化縣鹿港鎮東崎里彰鹿路5段6、8號1樓",
        "city": "彰化縣",
        "brand": "山葉",
        "tel": "04-7773879",
        "lat": 24.0491054,
        "lon": 120.4792071
    },
    {
        "id": 497,
        "title": "權生機車行",
        "address": "彰化縣溪洲鄉瓦厝村莒光路52號",
        "city": "彰化縣",
        "brand": "台鈴",
        "tel": "04-8895163",
        "lat": 23.8541703,
        "lon": 120.4919727
    },
    {
        "id": 498,
        "title": "尚國機車行",
        "address": "彰化縣福興鄉福南村沿海路4段795號",
        "city": "彰化縣",
        "brand": "山葉",
        "tel": "04-7789384",
        "lat": 24.043093,
        "lon": 120.426404
    },
    {
        "id": 499,
        "title": "益昇機車行",
        "address": "彰化縣福興鄉福南村沿海路4段758號",
        "city": "彰化縣",
        "brand": "三陽",
        "tel": "04-7750880",
        "lat": 24.0426195,
        "lon": 120.4263368
    },
    {
        "id": 500,
        "title": "連瑩機車商行",
        "address": "彰化縣福興鄉福興村沿海路5段186號",
        "city": "彰化縣",
        "brand": "光陽",
        "tel": "04-7787018",
        "lat": 24.0470356,
        "lon": 120.429321
    },
    {
        "id": 501,
        "title": "長榮發機車行",
        "address": "彰化縣福興鄉福興村沿海路5段85號",
        "city": "彰化縣",
        "brand": "光陽",
        "tel": "04-7783691",
        "lat": 24.045484,
        "lon": 120.427946
    },
    {
        "id": 502,
        "title": "盛昌機車行",
        "address": "彰化縣彰化市長樂里中正路2段94號1、2樓",
        "city": "彰化縣",
        "brand": "山葉",
        "tel": "04-7226509",
        "lat": 24.0798425,
        "lon": 120.5375707
    },
    {
        "id": 503,
        "title": "昆益機車材料行",
        "address": "彰化縣彰化市成功里大埔路721號",
        "city": "彰化縣",
        "brand": "光陽",
        "tel": "04-7113272",
        "lat": 24.0691889,
        "lon": 120.542436
    },
    {
        "id": 504,
        "title": "聯友車業行",
        "address": "彰化縣田中鎮南路里員集路2段76、78號1樓",
        "city": "彰化縣",
        "brand": "山葉",
        "tel": "04-8743339",
        "lat": 23.8532811,
        "lon": 120.5889103
    },
    {
        "id": 505,
        "title": "順圓利機車行",
        "address": "彰化縣伸港鄉大同村5鄰中興路2段298號",
        "city": "彰化縣",
        "brand": "光陽",
        "tel": "04-7981390",
        "lat": 24.1607509,
        "lon": 120.4870218
    },
    {
        "id": 506,
        "title": "寶翔機車行",
        "address": "彰化縣和美鎮和北里德美路605號",
        "city": "彰化縣",
        "brand": "光陽",
        "tel": "04-7573323",
        "lat": 24.1180796,
        "lon": 120.4970381
    },
    {
        "id": 507,
        "title": "彰琦企業股份有限公司",
        "address": "彰化縣鹿港鎮永安里復興路252號",
        "city": "彰化縣",
        "brand": "山葉",
        "tel": "04-7770077",
        "lat": 24.0556398,
        "lon": 120.4380535
    },
    {
        "id": 508,
        "title": "而立機車行",
        "address": "彰化縣伸港鄉新港村中興路1段279號",
        "city": "彰化縣",
        "brand": "其他",
        "tel": "04-7982086",
        "lat": 24.145587,
        "lon": 120.4890676
    },
    {
        "id": 509,
        "title": "玥神機車行",
        "address": "彰化縣彰化市華陽里南郭路1段208號1樓",
        "city": "彰化縣",
        "brand": "山葉",
        "tel": "04-7223469",
        "lat": 24.0739361,
        "lon": 120.5482177
    },
    {
        "id": 510,
        "title": "茂進機車行",
        "address": "彰化縣彰化市建國北路99號",
        "city": "彰化縣",
        "brand": "山葉",
        "tel": "04-7351468",
        "lat": 24.0941622,
        "lon": 120.5496839
    },
    {
        "id": 511,
        "title": "茂盛機車行",
        "address": "彰化縣溪洲鄉尾厝村中山路4段621號",
        "city": "彰化縣",
        "brand": "光陽",
        "tel": "04-8880496",
        "lat": 23.8691521,
        "lon": 120.5131188
    },
    {
        "id": 512,
        "title": "進程車業有限公司",
        "address": "彰化縣福興鄉廈粘村沿海路3段173、175號",
        "city": "彰化縣",
        "brand": "光陽",
        "tel": "04-7702273",
        "lat": 24.0289258,
        "lon": 120.4130672
    },
    {
        "id": 513,
        "title": "廣益機車行",
        "address": "彰化縣永靖鄉永東村5鄰東門路120號",
        "city": "彰化縣",
        "brand": "三陽",
        "tel": "04-8224240",
        "lat": 23.9224207,
        "lon": 120.5492218
    },
    {
        "id": 514,
        "title": "和洋機車行",
        "address": "彰化縣線西鄉和線路297號",
        "city": "彰化縣",
        "brand": "光陽",
        "tel": "04-7584347",
        "lat": 24.1219839,
        "lon": 120.4793002
    },
    {
        "id": 515,
        "title": "協誠機車行",
        "address": "彰化縣埔鹽鄉崑崙村彰水路1段141號",
        "city": "彰化縣",
        "brand": "三陽",
        "tel": "04-8850166",
        "lat": 23.989558,
        "lon": 120.478247
    },
    {
        "id": 516,
        "title": "志信機車行",
        "address": "彰化縣二林鎮太平路4段45之8號",
        "city": "彰化縣",
        "brand": "三陽",
        "tel": "04-8681439",
        "lat": 23.9404338,
        "lon": 120.437294
    },
    {
        "id": 517,
        "title": "益新機車行",
        "address": "彰化縣溪湖鎮大突里二溪路大突巷53之5號",
        "city": "彰化縣",
        "brand": "三陽",
        "tel": "04-8857667",
        "lat": 23.9679651,
        "lon": 120.4660172
    },
    {
        "id": 518,
        "title": "大勝機車行",
        "address": "彰化縣溪州鄉成功村登山路2段230號",
        "city": "彰化縣",
        "brand": "三陽",
        "tel": "04-8802656",
        "lat": 23.8243845,
        "lon": 120.5460805
    },
    {
        "id": 519,
        "title": "瑞展機車行",
        "address": "彰化縣花壇鄉北口村中山路2段632號",
        "city": "彰化縣",
        "brand": "光陽",
        "tel": "04-7865341",
        "lat": 24.0444389,
        "lon": 120.5339253
    },
    {
        "id": 520,
        "title": "瑩昌機車行",
        "address": "彰化縣社頭鄉湳底村員集路3段513號",
        "city": "彰化縣",
        "brand": "三陽",
        "tel": "04-8732880",
        "lat": 23.9174751,
        "lon": 120.5815508
    },
    {
        "id": 521,
        "title": "吉聯機車行",
        "address": "彰化縣員林市西東里浮圳路1段416號",
        "city": "彰化縣",
        "brand": "光陽",
        "tel": "04-8312317",
        "lat": 23.968247,
        "lon": 120.589299
    },
    {
        "id": 522,
        "title": "光順機車行",
        "address": "彰化縣永靖鄉永北村永福路1段28號",
        "city": "彰化縣",
        "brand": "台鈴",
        "tel": "04-8221278",
        "lat": 23.9207449,
        "lon": 120.5412705
    },
    {
        "id": 523,
        "title": "萬全機車行",
        "address": "彰化縣埔心鄉舊館村員鹿路4段65號",
        "city": "彰化縣",
        "brand": "三陽",
        "tel": "04-8292128",
        "lat": 23.9488032,
        "lon": 120.5288546
    },
    {
        "id": 524,
        "title": "新金馬機車行",
        "address": "彰化市光復里長興街91號",
        "city": "彰化縣",
        "brand": "光陽",
        "tel": "04-7220883",
        "lat": 24.0824249,
        "lon": 120.544476
    },
    {
        "id": 525,
        "title": "順吉機車行",
        "address": "彰化縣二水鄉光化村員集路4段70號1、2樓",
        "city": "彰化縣",
        "brand": "山葉",
        "tel": "04-8793320",
        "lat": 23.8127594,
        "lon": 120.6154822
    },
    {
        "id": 526,
        "title": "金大新車業有限公司",
        "address": "彰化縣溪湖鎮福安路180號",
        "city": "彰化縣",
        "brand": "山葉",
        "tel": "04-8829781",
        "lat": 23.9612488,
        "lon": 120.4759842
    },
    {
        "id": 527,
        "title": "大城合發機車行",
        "address": "彰化縣大城鄉大城村西平路95號",
        "city": "彰化縣",
        "brand": "山葉",
        "tel": "04-8941235",
        "lat": 23.8569474,
        "lon": 120.3205319
    },
    {
        "id": 528,
        "title": "興宏機車行",
        "address": "彰化縣大城鄉西城村南平路410號",
        "city": "彰化縣",
        "brand": "三陽",
        "tel": "04-8941536",
        "lat": 23.8534146,
        "lon": 120.3195552
    },
    {
        "id": 529,
        "title": "佳晟機車行",
        "address": "彰化縣溪湖鎮中山里大溪路一段535號",
        "city": "彰化縣",
        "brand": "三陽",
        "tel": "04-8857678",
        "lat": 23.96815,
        "lon": 120.494479
    },
    {
        "id": 530,
        "title": "昌易機車行",
        "address": "彰化縣大村鄉中正西路173號",
        "city": "彰化縣",
        "brand": "光陽",
        "tel": "04-8520246",
        "lat": 23.9887266,
        "lon": 120.5569673
    },
    {
        "id": 531,
        "title": "冠宏機車行",
        "address": "彰化縣大村鄉大村村大仁路1段6號",
        "city": "彰化縣",
        "brand": "三陽",
        "tel": "04-8525976",
        "lat": 23.992649,
        "lon": 120.5476381
    },
    {
        "id": 532,
        "title": "進暉機車行",
        "address": "彰化縣鹿港鎮草中里慶安街95號",
        "city": "彰化縣",
        "brand": "光陽",
        "tel": "04-7711452",
        "lat": 24.1081189,
        "lon": 120.45806
    },
    {
        "id": 533,
        "title": "隆翔車業行",
        "address": "彰化縣二林鎮北平里仁愛路385號",
        "city": "彰化縣",
        "brand": "山葉",
        "tel": "04-8954897",
        "lat": 23.9035279,
        "lon": 120.3713668
    },
    {
        "id": 534,
        "title": "伸隆機車行",
        "address": "彰化縣彰化市忠孝里辭修路81號",
        "city": "彰化縣",
        "brand": "三陽",
        "tel": "04-7237918",
        "lat": 24.0873666,
        "lon": 120.5386843
    },
    {
        "id": 535,
        "title": "祥富機車行",
        "address": "彰化縣芬園鄉芬草路一段330號",
        "city": "彰化縣",
        "brand": "其他",
        "tel": "049-2520526",
        "lat": 24.0122097,
        "lon": 120.6442021
    },
    {
        "id": 536,
        "title": "嘉明車業有限公司",
        "address": "嘉義縣鹿草鄉西井村鹿草548號",
        "city": "嘉義縣",
        "brand": "三陽",
        "tel": "05-3752329",
        "lat": 23.4098466,
        "lon": 120.3089697
    },
    {
        "id": 537,
        "title": "瑞億機車行",
        "address": "嘉義縣朴子市開元路266號",
        "city": "嘉義縣",
        "brand": "三陽",
        "tel": "05-3792736",
        "lat": 23.4657453,
        "lon": 120.2427292
    },
    {
        "id": 538,
        "title": "成邑有限公司",
        "address": "嘉義縣朴子市北通路67號",
        "city": "嘉義縣",
        "brand": "三陽",
        "tel": "05-3700626",
        "lat": 23.4689253,
        "lon": 120.2453667
    },
    {
        "id": 539,
        "title": "勝岡車業有限公司",
        "address": "嘉義縣朴子市山通路99號",
        "city": "嘉義縣",
        "brand": "山葉",
        "tel": "05-3792503",
        "lat": 23.4644016,
        "lon": 120.2431698
    },
    {
        "id": 540,
        "title": "增堅車業有限公司",
        "address": "嘉義縣義竹鄉六桂村2鄰義竹154-12號",
        "city": "嘉義縣",
        "brand": "山葉",
        "tel": "05-3412567",
        "lat": 23.3375331,
        "lon": 120.2428755
    },
    {
        "id": 541,
        "title": "永光機車行",
        "address": "嘉義縣新港鄉宮前村文昌街11號",
        "city": "嘉義縣",
        "brand": "光陽",
        "tel": "05-3742273",
        "lat": 23.5541467,
        "lon": 120.3492968
    },
    {
        "id": 542,
        "title": "原和機車行",
        "address": "嘉義縣大林鎮甘蔗崙38號",
        "city": "嘉義縣",
        "brand": "三陽",
        "tel": "05-2651453",
        "lat": 23.6079847,
        "lon": 120.4468055
    },
    {
        "id": 543,
        "title": "隆乙機車行",
        "address": "嘉義縣六腳鄉蒜東村蒜頭294-6號",
        "city": "嘉義縣",
        "brand": "光陽",
        "tel": "05-3803222",
        "lat": 23.4901692,
        "lon": 120.29269
    },
    {
        "id": 544,
        "title": "昇興機車行",
        "address": "嘉義縣水上鄉柳林村柳子林49-10號",
        "city": "嘉義縣",
        "brand": "光陽",
        "tel": "05-2684688",
        "lat": 23.4318055,
        "lon": 120.416147
    },
    {
        "id": 545,
        "title": "昶旭車業有限公司",
        "address": "嘉義縣太保市後潭439之10號",
        "city": "嘉義縣",
        "brand": "山葉",
        "tel": "05-3711321",
        "lat": 23.4528017,
        "lon": 120.3400685
    },
    {
        "id": 546,
        "title": "阿財車業行",
        "address": "嘉義縣中埔鄉和睦村中山路五段723號",
        "city": "嘉義縣",
        "brand": "山葉",
        "tel": "05-2391215",
        "lat": 23.4513686,
        "lon": 120.4639282
    },
    {
        "id": 547,
        "title": "新興車業有限公司",
        "address": "嘉義縣中埔鄉隆興村十字路118號",
        "city": "嘉義縣",
        "brand": "光陽",
        "tel": "05-2534092",
        "lat": 23.4418083,
        "lon": 120.5262361
    },
    {
        "id": 548,
        "title": "秦晟企業有限公司",
        "address": "嘉義縣大林鎮平林里中興路258號1樓",
        "city": "嘉義縣",
        "brand": "山葉",
        "tel": "05-2653045",
        "lat": 23.6027167,
        "lon": 120.4611652
    },
    {
        "id": 549,
        "title": "鴻興車業行",
        "address": "嘉義縣中埔鄉和興村中山路五段957號",
        "city": "嘉義縣",
        "brand": "台鈴",
        "tel": "05-2396169",
        "lat": 23.453666,
        "lon": 120.459741
    },
    {
        "id": 550,
        "title": "泰峰車業有限公司",
        "address": "嘉義縣大林鎮西林里中正路428號",
        "city": "嘉義縣",
        "brand": "三陽",
        "tel": "05-2652408",
        "lat": 23.6014901,
        "lon": 120.4529535
    },
    {
        "id": 551,
        "title": "高奇機車行",
        "address": "嘉義縣中埔鄉和興村14鄰中華路837號",
        "city": "嘉義縣",
        "brand": "三陽",
        "tel": "05-2305289",
        "lat": 23.449546,
        "lon": 120.4592228
    },
    {
        "id": 552,
        "title": "國利機車行",
        "address": "嘉義縣中埔鄉同仁村同仁161-2號",
        "city": "嘉義縣",
        "brand": "三陽",
        "tel": "05-2531404",
        "lat": 23.407006,
        "lon": 120.51338
    },
    {
        "id": 553,
        "title": "正大機車行",
        "address": "嘉義縣中埔鄉和睦村中山路5段403號",
        "city": "嘉義縣",
        "brand": "三陽",
        "tel": "05-2390120",
        "lat": 23.4514922,
        "lon": 120.4719624
    },
    {
        "id": 554,
        "title": "協發車業行",
        "address": "嘉義縣六腳鄉蒜頭村113-5號",
        "city": "嘉義縣",
        "brand": "山葉",
        "tel": "05-3802218",
        "lat": 23.4964097,
        "lon": 120.2930943
    },
    {
        "id": 555,
        "title": "富發車行",
        "address": "嘉義縣太保市中山路二段151號",
        "city": "嘉義縣",
        "brand": "三陽",
        "tel": "05-2373207",
        "lat": 23.499421,
        "lon": 120.3708442
    },
    {
        "id": 556,
        "title": "新偉車業股份有限公司",
        "address": "嘉義縣太保市銘泰新村1號",
        "city": "嘉義縣",
        "brand": "三陽",
        "tel": "05-3712898",
        "lat": 23.4511551,
        "lon": 120.3481269
    },
    {
        "id": 557,
        "title": "明賜機車行",
        "address": "嘉義縣水上鄉民生村忠孝街75號",
        "city": "嘉義縣",
        "brand": "山葉",
        "tel": "05-2364176",
        "lat": 23.4465552,
        "lon": 120.4344651
    },
    {
        "id": 558,
        "title": "車又車機車行",
        "address": "嘉義縣水上鄉水頭村11鄰中正路280號1樓",
        "city": "嘉義縣",
        "brand": "山葉",
        "tel": "05-2689432",
        "lat": 23.4278867,
        "lon": 120.3993711
    },
    {
        "id": 559,
        "title": "正發機車行",
        "address": "嘉義縣水上鄉龍德村三鎮路131號",
        "city": "嘉義縣",
        "brand": "光陽",
        "tel": "05-2682856",
        "lat": 23.4196254,
        "lon": 120.3894738
    },
    {
        "id": 560,
        "title": "新順榮機車行",
        "address": "嘉義縣布袋鎮東港里埔仔厝27號",
        "city": "嘉義縣",
        "brand": "光陽",
        "tel": "05-3472623",
        "lat": 23.37206,
        "lon": 120.190771
    },
    {
        "id": 561,
        "title": "聯騰車業行",
        "address": "嘉義縣民雄鄉北斗村北勢子1之19號",
        "city": "嘉義縣",
        "brand": "光陽",
        "tel": "05-2218255",
        "lat": 23.5344171,
        "lon": 120.4585821
    },
    {
        "id": 562,
        "title": "東新車業有限公司",
        "address": "嘉義縣民雄鄉建國路二段340號",
        "city": "嘉義縣",
        "brand": "三陽",
        "tel": "05-2262575",
        "lat": 23.5507459,
        "lon": 120.4340107
    },
    {
        "id": 563,
        "title": "金達車業有限公司",
        "address": "嘉義縣民雄鄉建國路三段57-13號",
        "city": "嘉義縣",
        "brand": "摩特",
        "tel": "05-2216873",
        "lat": 23.520098,
        "lon": 120.44014
    },
    {
        "id": 564,
        "title": "吉豐機車行",
        "address": "嘉義縣民雄鄉福樂村埤角336號",
        "city": "嘉義縣",
        "brand": "三陽",
        "tel": "05-2213607",
        "lat": 23.5250807,
        "lon": 120.4400517
    },
    {
        "id": 565,
        "title": "明新車業",
        "address": "嘉義縣民雄鄉北斗村11鄰北勢子73-47號",
        "city": "嘉義縣",
        "brand": "三陽",
        "tel": "05-2207966",
        "lat": 23.531502,
        "lon": 120.4527989
    },
    {
        "id": 566,
        "title": "宗泰機車行",
        "address": "嘉義縣朴子市向榮路46號",
        "city": "嘉義縣",
        "brand": "三陽",
        "tel": "05-3793262",
        "lat": 23.4680606,
        "lon": 120.2431294
    },
    {
        "id": 567,
        "title": "崑發機車行",
        "address": "嘉義縣朴子市南通路三段575號",
        "city": "嘉義縣",
        "brand": "光陽",
        "tel": "05-3797777",
        "lat": 23.4594751,
        "lon": 120.2427008
    },
    {
        "id": 568,
        "title": "億泰行",
        "address": "嘉義縣朴子市海通路43-4號",
        "city": "嘉義縣",
        "brand": "光陽",
        "tel": "05-3793370",
        "lat": 23.4637347,
        "lon": 120.2409
    },
    {
        "id": 569,
        "title": "順達機車行",
        "address": "嘉義縣竹崎鄉和平村坑仔坪159號",
        "city": "嘉義縣",
        "brand": "光陽",
        "tel": "05-2612449",
        "lat": 23.5162409,
        "lon": 120.5483309
    },
    {
        "id": 570,
        "title": "勝豐機車行",
        "address": "嘉義縣梅山鄉中山路369號",
        "city": "嘉義縣",
        "brand": "山葉",
        "tel": "05-2621324",
        "lat": 23.5851631,
        "lon": 120.5548713
    },
    {
        "id": 571,
        "title": "昇振車業有限公司",
        "address": "嘉義縣新港鄉宮後村新民路121號",
        "city": "嘉義縣",
        "brand": "山葉",
        "tel": "05-3742320",
        "lat": 23.5563869,
        "lon": 120.3494656
    },
    {
        "id": 572,
        "title": "一安機車行",
        "address": "嘉義縣六腳鄉六腳村六腳26號",
        "city": "嘉義縣",
        "brand": "三陽",
        "tel": "05-3781357",
        "lat": 23.5053093,
        "lon": 120.2531822
    },
    {
        "id": 573,
        "title": "輝龍車業有限公司",
        "address": "嘉義縣義竹鄉六桂村170-2號",
        "city": "嘉義縣",
        "brand": "三陽",
        "tel": "05-3412625",
        "lat": 23.3324379,
        "lon": 120.2440609
    },
    {
        "id": 574,
        "title": "德林機車行",
        "address": "嘉義縣民雄鄉西安村22鄰西安路139號",
        "city": "嘉義縣",
        "brand": "光陽",
        "tel": "05-2261052",
        "lat": 23.5577301,
        "lon": 120.4205973
    },
    {
        "id": 575,
        "title": "嘉大機車行",
        "address": "嘉義縣民雄鄉西安村西安路35之3號",
        "city": "嘉義縣",
        "brand": "台鈴",
        "tel": "05-2262252",
        "lat": 23.5568358,
        "lon": 120.4264139
    },
    {
        "id": 576,
        "title": "金興機車行",
        "address": "嘉義縣竹崎鄉竹崎村中山路237號",
        "city": "嘉義縣",
        "brand": "台鈴",
        "tel": "05-2611088",
        "lat": 23.5187675,
        "lon": 120.549366
    },
    {
        "id": 577,
        "title": "統一機車行",
        "address": "嘉義縣竹崎鄉灣橋村灣橋340巷4號",
        "city": "嘉義縣",
        "brand": "山葉",
        "tel": "05-2790618",
        "lat": 23.4922219,
        "lon": 120.5029424
    },
    {
        "id": 578,
        "title": "吉冠機車行",
        "address": "嘉義縣縣東石鄉東石村11鄰東石5號",
        "city": "嘉義縣",
        "brand": "三陽",
        "tel": "05-3733066",
        "lat": 23.458434,
        "lon": 120.152876
    },
    {
        "id": 579,
        "title": "展信機車行",
        "address": "嘉義縣縣東石鄉猿樹村145號",
        "city": "嘉義縣",
        "brand": "山葉",
        "tel": "05-3733062",
        "lat": 23.4641647,
        "lon": 120.1546002
    },
    {
        "id": 580,
        "title": "永安機車行",
        "address": "嘉義縣縣新港鄉中正路433號",
        "city": "嘉義縣",
        "brand": "三陽",
        "tel": "05-3742736",
        "lat": 23.5673355,
        "lon": 120.3491756
    },
    {
        "id": 581,
        "title": "萬安機車行",
        "address": "嘉義縣縣新港鄉月眉村月眉潭49號",
        "city": "嘉義縣",
        "brand": "三陽",
        "tel": "05-3772068",
        "lat": 23.5211798,
        "lon": 120.3524152
    },
    {
        "id": 582,
        "title": "明欣機車行",
        "address": "嘉義縣溪口鄉溪東村22鄰和平街92號",
        "city": "嘉義縣",
        "brand": "三陽",
        "tel": "05-2692535",
        "lat": 23.6059728,
        "lon": 120.3979755
    },
    {
        "id": 583,
        "title": "永新機車行",
        "address": "嘉義縣水上鄉寬士村崎子頭172號",
        "city": "嘉義縣",
        "brand": "三陽",
        "tel": "05-2351465",
        "lat": 23.4518805,
        "lon": 120.4207228
    },
    {
        "id": 584,
        "title": "怡沁車業行",
        "address": "嘉義縣民雄鄉文隆村建國路二段93號",
        "city": "嘉義縣",
        "brand": "怡沁科技股份有限公司",
        "tel": "05-2061010",
        "lat": 23.5342264,
        "lon": 120.436439
    },
    {
        "id": 585,
        "title": "中成車業行",
        "address": "嘉義縣朴子市南通路三段785號",
        "city": "嘉義縣",
        "brand": "三陽",
        "tel": "05-3701587",
        "lat": 23.4639005,
        "lon": 120.2428358
    },
    {
        "id": 586,
        "title": "加興機車行",
        "address": "嘉義縣民雄鄉頂崙村崙仔頂104-21號1F",
        "city": "嘉義縣",
        "brand": "三陽",
        "tel": "05-2262947",
        "lat": 23.5667643,
        "lon": 120.4400839
    },
    {
        "id": 587,
        "title": "弘祥車業行",
        "address": "嘉義縣太保市安仁里祥和三路東段37號",
        "city": "嘉義縣",
        "brand": "山葉",
        "tel": "05-3625511",
        "lat": 23.4547369,
        "lon": 120.2937421
    },
    {
        "id": 588,
        "title": "銓盛車業行",
        "address": "嘉義縣太保市安仁里10鄰祥和一路東段102號",
        "city": "嘉義縣",
        "brand": "YAMAHA",
        "tel": "05-3628368",
        "lat": 23.4583286,
        "lon": 120.2982155
    },
    {
        "id": 589,
        "title": "建良機車行",
        "address": "嘉義縣水上鄉柳新村柳子林48-3號",
        "city": "嘉義縣",
        "brand": "三陽",
        "tel": "05-2681208",
        "lat": 23.4297915,
        "lon": 120.4082939
    },
    {
        "id": 590,
        "title": "龍發機車行",
        "address": "嘉義縣民雄鄉興南村頭橋557-11號",
        "city": "嘉義縣",
        "brand": "山葉",
        "tel": "05-2203556",
        "lat": 23.5151863,
        "lon": 120.4302275
    },
    {
        "id": 591,
        "title": "泰源機車行",
        "address": "嘉義縣民雄鄉東榮村文化路26-35號",
        "city": "嘉義縣",
        "brand": "光陽",
        "tel": "05-2268652",
        "lat": 23.5510102,
        "lon": 120.4286937
    },
    {
        "id": 592,
        "title": "振安機車行",
        "address": "嘉義縣竹崎鄉紫雲村5鄰坑口1之24號",
        "city": "嘉義縣",
        "brand": "光陽",
        "tel": "05-2542358",
        "lat": 23.4951768,
        "lon": 120.5423015
    },
    {
        "id": 593,
        "title": "準壹機車行",
        "address": "嘉義縣布袋鎮復興里新塭17-37號",
        "city": "嘉義縣",
        "brand": "光陽",
        "tel": "05-3433995",
        "lat": 23.3243946,
        "lon": 120.1620174
    },
    {
        "id": 594,
        "title": "琮得機車行",
        "address": "嘉義縣新港鄉宮前村中山路115-1號",
        "city": "嘉義縣",
        "brand": "三陽",
        "tel": "05-3749746",
        "lat": 23.5534533,
        "lon": 120.3475069
    },
    {
        "id": 595,
        "title": "騰達機車行",
        "address": "嘉義縣六腳鄉灣南村灣內10之2號1樓",
        "city": "嘉義縣",
        "brand": "光陽",
        "tel": "05-3801439",
        "lat": 23.4922962,
        "lon": 120.3060706
    },
    {
        "id": 596,
        "title": "達豐機車行",
        "address": "嘉義縣梅山鄉梅東村5鄰社教路5巷2號",
        "city": "嘉義縣",
        "brand": "光陽",
        "tel": "05-2622603",
        "lat": 23.5782347,
        "lon": 120.5610665
    },
    {
        "id": 597,
        "title": "尚峰機車行",
        "address": "嘉義縣溪口鄉溪西村中正路204號",
        "city": "嘉義縣",
        "brand": "東浥科技股份有限公司",
        "tel": "05-2697384",
        "lat": 23.6027153,
        "lon": 120.3944562
    },
    {
        "id": 598,
        "title": "金昌機車行",
        "address": "嘉義縣水上鄉龍德村11鄰十一指厝75之37號",
        "city": "嘉義縣",
        "brand": "東浥科技股份有限公司",
        "tel": "05-2682258",
        "lat": 23.421754,
        "lon": 120.390636
    },
    {
        "id": 599,
        "title": "銘興車業行",
        "address": "嘉義縣太保市麻寮里3鄰中山路二段13號",
        "city": "嘉義縣",
        "brand": "光陽",
        "tel": "05-2382169",
        "lat": 23.4989128,
        "lon": 120.3750312
    },
    {
        "id": 600,
        "title": "合金機車行",
        "address": "嘉義縣六腳鄉豐美村4鄰港尾寮149-1號",
        "city": "嘉義縣",
        "brand": "光陽",
        "tel": "05-3805249",
        "lat": 23.5294164,
        "lon": 120.2830007
    },
    {
        "id": 601,
        "title": "昇暘車業股份有限公司",
        "address": "嘉義市西區博愛路2段131之1號1樓",
        "city": "嘉義縣",
        "brand": "三陽",
        "tel": "05-2318129",
        "lat": 23.4816136,
        "lon": 120.4397273
    },
    {
        "id": 602,
        "title": "宏嘉機車行",
        "address": "嘉義市東區興業東路229號",
        "city": "嘉義縣",
        "brand": "光陽",
        "tel": "05-2284523",
        "lat": 23.4694336,
        "lon": 120.4540444
    },
    {
        "id": 603,
        "title": "嘉進車業股份有限公司",
        "address": "嘉義市西區金山路215號",
        "city": "嘉義縣",
        "brand": "光陽",
        "tel": "05-2361750",
        "lat": 23.4758656,
        "lon": 120.4230624
    },
    {
        "id": 604,
        "title": "嘉雲南機車商行",
        "address": "嘉義市東區民族路408號",
        "city": "嘉義縣",
        "brand": "山葉",
        "tel": "05-2289988",
        "lat": 23.4761251,
        "lon": 120.4511219
    },
    {
        "id": 605,
        "title": "富達輪業有限公司",
        "address": "嘉義市西區中山路400號",
        "city": "嘉義縣",
        "brand": "山葉",
        "tel": "05-2230368",
        "lat": 23.4795559,
        "lon": 120.4455085
    },
    {
        "id": 606,
        "title": "振南機車行",
        "address": "嘉義市東區宣信街173號一樓",
        "city": "嘉義縣",
        "brand": "山葉",
        "tel": "05-2230448",
        "lat": 23.46684,
        "lon": 120.4620628
    },
    {
        "id": 607,
        "title": "慶明機車行",
        "address": "嘉義市西區民族路574號",
        "city": "嘉義縣",
        "brand": "光陽",
        "tel": "05-2223624",
        "lat": 23.4757629,
        "lon": 120.4471033
    },
    {
        "id": 608,
        "title": "滿金機車行",
        "address": "嘉義市西區民生南路570號",
        "city": "嘉義縣",
        "brand": "三陽",
        "tel": "05-2350282",
        "lat": 23.4583748,
        "lon": 120.443334
    },
    {
        "id": 609,
        "title": "南興車業行",
        "address": "嘉義市東區南興路182號",
        "city": "嘉義縣",
        "brand": "三陽",
        "tel": "05-2287406",
        "lat": 23.4665783,
        "lon": 120.4575413
    },
    {
        "id": 610,
        "title": "勝快機車有限公司",
        "address": "嘉義市東區吳鳳北路257號",
        "city": "嘉義縣",
        "brand": "台鈴",
        "tel": "05-2242125",
        "lat": 23.4804894,
        "lon": 120.4530495
    },
    {
        "id": 611,
        "title": "信芳車業有限公司",
        "address": "嘉義市東區忠孝路131號",
        "city": "嘉義縣",
        "brand": "光陽",
        "tel": "05-2275128",
        "lat": 23.4803881,
        "lon": 120.4542556
    },
    {
        "id": 612,
        "title": "峰基車業有限公司",
        "address": "嘉義市東區忠孝路284-7號",
        "city": "嘉義縣",
        "brand": "山葉",
        "tel": "05-2771932",
        "lat": 23.4857751,
        "lon": 120.4538094
    },
    {
        "id": 613,
        "title": "正田機車行",
        "address": "嘉義市東區台林街90號",
        "city": "嘉義縣",
        "brand": "光陽",
        "tel": "05-2752875",
        "lat": 23.4949835,
        "lon": 120.4545786
    },
    {
        "id": 614,
        "title": "上大機車行",
        "address": "嘉義市民權路157之1號1樓",
        "city": "嘉義縣",
        "brand": "摩特動力",
        "tel": "05-2787418",
        "lat": 23.4836828,
        "lon": 120.4603318
    },
    {
        "id": 615,
        "title": "德盛機車行",
        "address": "嘉義市民生南路878號",
        "city": "嘉義縣",
        "brand": "三陽",
        "tel": "05-2851482",
        "lat": 23.4541801,
        "lon": 120.4395458
    },
    {
        "id": 616,
        "title": "凱輪車業行",
        "address": "嘉義市自由路299號",
        "city": "嘉義縣",
        "brand": "台鈴",
        "tel": "05-2340902",
        "lat": 23.4913527,
        "lon": 120.4325216
    },
    {
        "id": 617,
        "title": "富安機車行",
        "address": "嘉義市吳鳳北路234號",
        "city": "嘉義縣",
        "brand": "山葉",
        "tel": "05-2223086",
        "lat": 23.4798828,
        "lon": 120.4531775
    },
    {
        "id": 618,
        "title": "志誠機車行",
        "address": "嘉義市吳鳳南路621巷9號",
        "city": "嘉義縣",
        "brand": "光陽",
        "tel": "05-2391987",
        "lat": 23.4558875,
        "lon": 120.4596909
    },
    {
        "id": 619,
        "title": "銘鍚車業有限公司",
        "address": "嘉義市東區民權路171號",
        "city": "嘉義縣",
        "brand": "光陽",
        "tel": "05-2782381",
        "lat": 23.4836982,
        "lon": 120.4596099
    },
    {
        "id": 620,
        "title": "百合機車行",
        "address": "嘉義市林森東路273號",
        "city": "嘉義縣",
        "brand": "三陽",
        "tel": "05-2770352",
        "lat": 23.4900328,
        "lon": 120.4661619
    },
    {
        "id": 621,
        "title": "大象機車行",
        "address": "嘉義市芳安路29號",
        "city": "嘉義縣",
        "brand": "山葉",
        "tel": "05-2225516",
        "lat": 23.4687283,
        "lon": 120.464715
    },
    {
        "id": 622,
        "title": "建達機車行",
        "address": "嘉義市建成街96號",
        "city": "嘉義縣",
        "brand": "光陽",
        "tel": "05-2850839",
        "lat": 23.4706873,
        "lon": 120.4394083
    },
    {
        "id": 623,
        "title": "巨豐車業有限公司",
        "address": "嘉義市博愛路一段438號",
        "city": "嘉義縣",
        "brand": "山葉",
        "tel": "05-2327650",
        "lat": 23.4861925,
        "lon": 120.4433274
    },
    {
        "id": 624,
        "title": "文發車業行",
        "address": "嘉義市博愛路二段399號",
        "city": "嘉義縣",
        "brand": "光陽",
        "tel": "05-2359126",
        "lat": 23.4745778,
        "lon": 120.4338039
    },
    {
        "id": 625,
        "title": "東亞機車行",
        "address": "嘉義市東區初陽里延平街162號",
        "city": "嘉義縣",
        "brand": "光陽",
        "tel": "05-2281037",
        "lat": 23.4853348,
        "lon": 120.4760853
    },
    {
        "id": 626,
        "title": "慶和機車行",
        "address": "嘉義市鎮南里忠孝路552-6號",
        "city": "嘉義縣",
        "brand": "三陽",
        "tel": "05-2226567",
        "lat": 23.494568,
        "lon": 120.452786
    },
    {
        "id": 627,
        "title": "名牌機車行",
        "address": "嘉義市大雅路二段569號1樓",
        "city": "嘉義縣",
        "brand": "光陽",
        "tel": "05-2761665",
        "lat": 23.4773398,
        "lon": 120.4678344
    },
    {
        "id": 628,
        "title": "昇達機車商行",
        "address": "嘉義市東區公明路304號",
        "city": "嘉義縣",
        "brand": "比雅久",
        "tel": "05-2279820",
        "lat": 23.4799429,
        "lon": 120.453571
    },
    {
        "id": 629,
        "title": "男華機車行",
        "address": "嘉義市西區劉厝里自強街111號",
        "city": "嘉義縣",
        "brand": "光陽",
        "tel": "05-2830829",
        "lat": 23.4648619,
        "lon": 120.4225273
    },
    {
        "id": 630,
        "title": "南榮機車行",
        "address": "嘉義市西區劉厝里自強街84巷2號1樓",
        "city": "嘉義縣",
        "brand": "三陽",
        "tel": "05-2359175",
        "lat": 23.4649941,
        "lon": 120.4217174
    },
    {
        "id": 631,
        "title": "正新機車行",
        "address": "嘉義市西區博愛路一段369號1樓",
        "city": "嘉義縣",
        "brand": "光陽",
        "tel": "05-2322932",
        "lat": 23.4875062,
        "lon": 120.4444594
    },
    {
        "id": 632,
        "title": "大發機車行",
        "address": "嘉義市中興路487號",
        "city": "嘉義縣",
        "brand": "山葉",
        "tel": "05-2331251",
        "lat": 23.4789363,
        "lon": 120.4290782
    },
    {
        "id": 633,
        "title": "建福車業行",
        "address": "嘉義市西區民生北路231號",
        "city": "嘉義縣",
        "brand": "光陽",
        "tel": "05-2225148",
        "lat": 23.4805638,
        "lon": 120.4460858
    },
    {
        "id": 634,
        "title": "嘉榮機車行",
        "address": "600嘉義市西區保安一路136號",
        "city": "嘉義縣",
        "brand": "光陽",
        "tel": "05-2340679",
        "lat": 23.4934537,
        "lon": 120.4385867
    },
    {
        "id": 635,
        "title": "吉富機車行",
        "address": "嘉義市西區光路里8鄰新民路448號1樓",
        "city": "嘉義縣",
        "brand": "山葉",
        "tel": "(05)2856177",
        "lat": 23.4607462,
        "lon": 120.4409202
    },
    {
        "id": 636,
        "title": "安生機車行",
        "address": "嘉義市東區豐年里吳鳳南路30號一樓",
        "city": "嘉義縣",
        "brand": "山葉",
        "tel": "05-2292048",
        "lat": 23.4712856,
        "lon": 120.4539919
    },
    {
        "id": 637,
        "title": "協輪機車行",
        "address": "嘉義市西區北興街442-2號1-2樓",
        "city": "嘉義縣",
        "brand": "光陽",
        "tel": "05-2323871",
        "lat": 23.4874014,
        "lon": 120.435093
    },
    {
        "id": 638,
        "title": "紘昌行",
        "address": "嘉義市西區福民里重慶路28號1樓",
        "city": "嘉義縣",
        "brand": "山葉",
        "tel": "05-2850769",
        "lat": 23.4657748,
        "lon": 120.4399094
    },
    {
        "id": 639,
        "title": "開元機車行",
        "address": "嘉義市東區保建街30之9號1樓",
        "city": "嘉義縣",
        "brand": "山葉",
        "tel": "05-2782710",
        "lat": 23.5009756,
        "lon": 120.4552636
    },
    {
        "id": 640,
        "title": "縉欑機車行",
        "address": "嘉義市西區西平里20鄰玉山路259號",
        "city": "嘉義縣",
        "brand": "光陽",
        "tel": "05-2853575",
        "lat": 23.471703,
        "lon": 120.4245056
    },
    {
        "id": 641,
        "title": "榮盛輪業股份有限公司",
        "address": "新竹縣竹北市三民路190號",
        "city": "新竹",
        "brand": "光陽",
        "tel": "03-5552238",
        "lat": 24.8333061,
        "lon": 121.013732
    },
    {
        "id": 642,
        "title": "盛茂實業股份有限公司",
        "address": "新竹縣竹東鎮長春路二段109號",
        "city": "新竹",
        "brand": "三陽",
        "tel": "03-5969911",
        "lat": 24.7393387,
        "lon": 121.08696
    },
    {
        "id": 643,
        "title": "雲集輪業有限公司",
        "address": "新竹縣竹北市中山路493號",
        "city": "新竹",
        "brand": "山葉",
        "tel": "03-5532868",
        "lat": 24.8385296,
        "lon": 121.0137292
    },
    {
        "id": 644,
        "title": "民祥車業商行",
        "address": "新竹縣新豐鄉建興路一段101號",
        "city": "新竹",
        "brand": "山葉",
        "tel": "03-5593553",
        "lat": 24.8727512,
        "lon": 120.9948745
    },
    {
        "id": 645,
        "title": "智翔車業有限公司",
        "address": "新竹縣竹東鎮東寧路三段147號",
        "city": "新竹",
        "brand": "光陽",
        "tel": "03-5962943",
        "lat": 24.739938,
        "lon": 121.0855533
    },
    {
        "id": 646,
        "title": "祥合車業行",
        "address": "新竹縣新豐鄉新興路169號",
        "city": "新竹",
        "brand": "山葉",
        "tel": "03-5593452",
        "lat": 24.8679823,
        "lon": 120.9936739
    },
    {
        "id": 647,
        "title": "高平輪機車行",
        "address": "新竹縣湖口鄉信全街11號",
        "city": "新竹",
        "brand": "三陽",
        "tel": "03-5992753",
        "lat": 24.8995172,
        "lon": 121.0421605
    },
    {
        "id": 648,
        "title": "金三輪業行",
        "address": "新竹縣湖口鄉中山路二段263號",
        "city": "新竹",
        "brand": "台鈴",
        "tel": "03-5992365",
        "lat": 24.9063487,
        "lon": 121.0463359
    },
    {
        "id": 649,
        "title": "新慶車業",
        "address": "新竹縣新埔鎮田新里文德路三段168號",
        "city": "新竹",
        "brand": "山葉",
        "tel": "03-5882228",
        "lat": 24.8244884,
        "lon": 121.0777754
    },
    {
        "id": 650,
        "title": "豐龍車業有限公司",
        "address": "新竹縣關西鎮中豐路367號",
        "city": "新竹",
        "brand": "三陽",
        "tel": "03-5872009",
        "lat": 24.7909341,
        "lon": 121.1782157
    },
    {
        "id": 651,
        "title": "力達車行",
        "address": "新竹縣竹北市中華路357號",
        "city": "新竹",
        "brand": "台鈴",
        "tel": "03-5552699",
        "lat": 24.837206,
        "lon": 121.0048814
    },
    {
        "id": 652,
        "title": "茂泰輪業有限公司",
        "address": "新竹縣竹北市中山路543號",
        "city": "新竹",
        "brand": "三陽",
        "tel": "03-5552467",
        "lat": 24.8386451,
        "lon": 121.012294
    },
    {
        "id": 653,
        "title": "春信輪業行",
        "address": "新竹縣竹北市新崙里中華路47號1樓",
        "city": "新竹",
        "brand": "三陽",
        "tel": "03-5510168",
        "lat": 24.8282617,
        "lon": 120.999048
    },
    {
        "id": 654,
        "title": "勝東機車行",
        "address": "新竹縣竹東鎮東華里東林路29號",
        "city": "新竹",
        "brand": "三陽",
        "tel": "03-5957358",
        "lat": 24.7371229,
        "lon": 121.0893271
    },
    {
        "id": 655,
        "title": "昇欣機車行",
        "address": "新竹縣竹東鎮中豐路一段133號",
        "city": "新竹",
        "brand": "光陽",
        "tel": "03-5961278",
        "lat": 24.7225189,
        "lon": 121.0972473
    },
    {
        "id": 656,
        "title": "銘鴻車業行",
        "address": "新竹縣竹東鎮長春路三段60號",
        "city": "新竹",
        "brand": "山葉",
        "tel": "03-5963308",
        "lat": 24.7412686,
        "lon": 121.0856483
    },
    {
        "id": 657,
        "title": "明德機車行",
        "address": "新竹縣竹東鎮容華里長春路三段54號",
        "city": "新竹",
        "brand": "光陽",
        "tel": "03-5958406",
        "lat": 24.7411341,
        "lon": 121.0857629
    },
    {
        "id": 658,
        "title": "益誠機車行",
        "address": "新竹縣竹東鎮東寧路2段198號",
        "city": "新竹",
        "brand": "三陽",
        "tel": "03-5962574",
        "lat": 24.7334459,
        "lon": 121.088582
    },
    {
        "id": 659,
        "title": "信宏機車行",
        "address": "新竹縣湖口鄉中勢村中山路2段353",
        "city": "新竹",
        "brand": "光陽",
        "tel": "03-5993237",
        "lat": 24.9074989,
        "lon": 121.04809
    },
    {
        "id": 660,
        "title": "乃新車業行",
        "address": "新竹縣湖口鄉中山路二段23號",
        "city": "新竹",
        "brand": "山葉",
        "tel": "03-5992139",
        "lat": 24.90025,
        "lon": 121.04266
    },
    {
        "id": 661,
        "title": "聯全機車行",
        "address": "新竹縣湖口鄉中正路一段154號",
        "city": "新竹",
        "brand": "山葉",
        "tel": "03-5901734",
        "lat": 24.89985,
        "lon": 121.0471222
    },
    {
        "id": 662,
        "title": "竹祥實業有限公司",
        "address": "新竹縣湖口鄉孝勢村忠孝路8號",
        "city": "新竹",
        "brand": "三陽",
        "tel": "03-5992441",
        "lat": 24.901456,
        "lon": 121.044211
    },
    {
        "id": 663,
        "title": "正富輪業有限公司",
        "address": "新竹縣新埔鎮中正路267號",
        "city": "新竹",
        "brand": "光陽",
        "tel": "03-5882059",
        "lat": 24.8279162,
        "lon": 121.0788964
    },
    {
        "id": 664,
        "title": "新隆機車行",
        "address": "新竹縣新豐鄉建興路二段764號",
        "city": "新竹",
        "brand": "三陽",
        "tel": "03-5592847",
        "lat": 24.8998097,
        "lon": 120.9871432
    },
    {
        "id": 665,
        "title": "聯成機車行",
        "address": "新竹縣新豐鄉新興路180號",
        "city": "新竹",
        "brand": "光陽",
        "tel": "03-5591679",
        "lat": 24.869141,
        "lon": 120.9956501
    },
    {
        "id": 666,
        "title": "朝鐘機車行",
        "address": "新竹縣關西鎮中山路1號",
        "city": "新竹",
        "brand": "光陽",
        "tel": "03-5872069",
        "lat": 24.7913719,
        "lon": 121.1780101
    },
    {
        "id": 667,
        "title": "全營機車行",
        "address": "新竹縣北埔鄉水磜村水磜子1號",
        "city": "新竹",
        "brand": "三陽",
        "tel": "03-5803732",
        "lat": 24.6631393,
        "lon": 121.067907
    },
    {
        "id": 668,
        "title": "金山機車行",
        "address": "新竹縣竹北市大義里鳳岡路三段116號",
        "city": "新竹",
        "brand": "光陽",
        "tel": "03-5561337",
        "lat": 24.8634672,
        "lon": 120.9658322
    },
    {
        "id": 669,
        "title": "順發機車行",
        "address": "新竹縣竹北市中正西路1140號",
        "city": "新竹",
        "brand": "光陽",
        "tel": "03-5563988",
        "lat": 24.8411817,
        "lon": 120.9749698
    },
    {
        "id": 670,
        "title": "廣豐車業行",
        "address": "新竹縣竹北市中華路111號",
        "city": "新竹",
        "brand": "光陽",
        "tel": "03-5558143",
        "lat": 24.8295245,
        "lon": 121.0003993
    },
    {
        "id": 671,
        "title": "達成機車行",
        "address": "新竹縣竹北市竹義里中華路342號",
        "city": "新竹",
        "brand": "摩特",
        "tel": "03-5553937",
        "lat": 24.8363547,
        "lon": 121.0052631
    },
    {
        "id": 672,
        "title": "萬通機車行",
        "address": "新竹縣竹東鎮中興路3段406號",
        "city": "新竹",
        "brand": "光陽",
        "tel": "03-5827373",
        "lat": 24.7709203,
        "lon": 121.0517304
    },
    {
        "id": 673,
        "title": "金原機車行",
        "address": "新竹縣竹東鎮大明路163號",
        "city": "新竹",
        "brand": "三陽",
        "tel": "03-5964166",
        "lat": 24.7360361,
        "lon": 121.0951856
    },
    {
        "id": 674,
        "title": "福興輪業行",
        "address": "新竹縣湖口鄉湖鏡村中正路3段18號",
        "city": "新竹",
        "brand": "三陽",
        "tel": "03-5690410",
        "lat": 24.8874829,
        "lon": 121.052036
    },
    {
        "id": 675,
        "title": "連城機車行",
        "address": "新竹縣湖口鄉鳳凰村中華路96號1F",
        "city": "新竹",
        "brand": "三陽",
        "tel": "03-5982591",
        "lat": 24.8741665,
        "lon": 121.011432
    },
    {
        "id": 676,
        "title": "振宏行",
        "address": "新竹縣新埔鎮中正路638號",
        "city": "新竹",
        "brand": "三陽",
        "tel": "03-5882671",
        "lat": 24.8279826,
        "lon": 121.0740032
    },
    {
        "id": 677,
        "title": "進順機車行",
        "address": "新竹縣新埔鎮新民里中正路509號",
        "city": "新竹",
        "brand": "山葉",
        "tel": "03-5885673",
        "lat": 24.8275361,
        "lon": 121.073345
    },
    {
        "id": 678,
        "title": "盛進車業行",
        "address": "新竹縣新埔鎮四座里和平街11號",
        "city": "新竹",
        "brand": "山葉",
        "tel": "03-5885228",
        "lat": 24.8377329,
        "lon": 121.0086411
    },
    {
        "id": 679,
        "title": "台偉機車行",
        "address": "新竹縣新豐鄉重興村建興路2段716號",
        "city": "新竹",
        "brand": "三陽",
        "tel": "03-5594289",
        "lat": 24.898695,
        "lon": 120.987478
    },
    {
        "id": 680,
        "title": "茂輪機車行",
        "address": "新竹縣關西鎮石光里6鄰243巷5號",
        "city": "新竹",
        "brand": "山葉",
        "tel": "03-5869139",
        "lat": 24.8112962,
        "lon": 121.1118212
    },
    {
        "id": 681,
        "title": "源德機車行",
        "address": "新竹縣寶山鄉雙溪村雙園路2段316號",
        "city": "新竹",
        "brand": "光陽",
        "tel": "03-5202509",
        "lat": 24.7652093,
        "lon": 120.9901694
    },
    {
        "id": 682,
        "title": "新華機車行",
        "address": "新竹縣橫山鄉橫山村中豐路一段75號",
        "city": "新竹",
        "brand": "光陽",
        "tel": "03-5934930",
        "lat": 24.7216784,
        "lon": 121.1098455
    },
    {
        "id": 683,
        "title": "民翔車業行",
        "address": "新竹縣竹北市三民路303號",
        "city": "新竹",
        "brand": "山葉",
        "tel": "03-6566491",
        "lat": 24.8333048,
        "lon": 121.0118895
    },
    {
        "id": 684,
        "title": "成祥機車行",
        "address": "新竹縣湖口鄉德盛村德興路77號",
        "city": "新竹",
        "brand": "光陽",
        "tel": "03-5993877",
        "lat": 24.907243,
        "lon": 121.045147
    },
    {
        "id": 685,
        "title": "大昇機車行",
        "address": "新竹縣竹東鎮上館里南寧路4號",
        "city": "新竹",
        "brand": "山葉",
        "tel": "03-5960927",
        "lat": 24.7276843,
        "lon": 121.0927372
    },
    {
        "id": 686,
        "title": "中泰機車行",
        "address": "新竹縣竹北市竹仁里中正東路231號",
        "city": "新竹",
        "brand": "山葉",
        "tel": "03-5515752",
        "lat": 24.8350583,
        "lon": 121.0142543
    },
    {
        "id": 687,
        "title": "聯興機車行",
        "address": "新竹縣竹北市中正西路728號",
        "city": "新竹",
        "brand": "山葉",
        "tel": "03-5554188",
        "lat": 24.841161,
        "lon": 120.985431
    },
    {
        "id": 688,
        "title": "向陽車業行",
        "address": "新竹縣竹北市中正東路72號",
        "city": "新竹",
        "brand": "三陽",
        "tel": "03-5512091",
        "lat": 24.8352201,
        "lon": 121.0179965
    },
    {
        "id": 689,
        "title": "通順機車行",
        "address": "新竹縣竹東鎮東寧路2段231號",
        "city": "新竹",
        "brand": "三陽",
        "tel": "03-5962950",
        "lat": 24.7341971,
        "lon": 121.0884539
    },
    {
        "id": 690,
        "title": "盛光機車行",
        "address": "新竹縣新埔鎮田新里田新路335號",
        "city": "新竹",
        "brand": "台鈴",
        "tel": "03-5881628",
        "lat": 24.8245591,
        "lon": 121.07701
    },
    {
        "id": 691,
        "title": "松林機車行",
        "address": "新竹縣新豐鄉康樂路一段138號",
        "city": "新竹",
        "brand": "光陽",
        "tel": "03-5599707",
        "lat": 24.8674174,
        "lon": 120.9894644
    },
    {
        "id": 692,
        "title": "信良機車行",
        "address": "新竹縣芎林鄉文山路496號",
        "city": "新竹",
        "brand": "山葉",
        "tel": "03-5923808",
        "lat": 24.7766972,
        "lon": 121.0784396
    },
    {
        "id": 693,
        "title": "立豐機車行",
        "address": "新竹縣竹北市縣政二路388-1號",
        "city": "新竹",
        "brand": "山葉",
        "tel": "03-5585856",
        "lat": 24.8274081,
        "lon": 121.016506
    },
    {
        "id": 694,
        "title": "傑仕行",
        "address": "新竹縣湖口鄉中正村忠孝路37之2號",
        "city": "新竹",
        "brand": "比雅久",
        "tel": "03-5995660",
        "lat": 24.9002467,
        "lon": 121.0462083
    },
    {
        "id": 695,
        "title": "捷翔機車行",
        "address": "新竹縣横山鄉內灣村5鄰中山街2段51-5號",
        "city": "新竹",
        "brand": "山葉",
        "tel": "03-5849181",
        "lat": 24.704239,
        "lon": 121.18118
    },
    {
        "id": 696,
        "title": "勝群機車行",
        "address": "新竹縣湖口鄉勝利村11鄰安宅八街109-1號",
        "city": "新竹",
        "brand": "光陽",
        "tel": "03-5973555",
        "lat": 24.8679718,
        "lon": 121.0235448
    },
    {
        "id": 697,
        "title": "新興機車行",
        "address": "新竹縣北埔鄉埔尾村7鄰埔心街89號",
        "city": "新竹",
        "brand": "光陽",
        "tel": "03-5802717",
        "lat": 24.7036703,
        "lon": 121.0505469
    },
    {
        "id": 698,
        "title": "鴻泰車業行",
        "address": "新竹縣竹北市自強南路288號",
        "city": "新竹",
        "brand": "光陽",
        "tel": "03-6589380",
        "lat": 24.8136811,
        "lon": 121.02319
    },
    {
        "id": 699,
        "title": "新高平機車行",
        "address": "新竹縣湖口鄉鳳凰村4鄰新興路618號",
        "city": "新竹",
        "brand": "三陽",
        "tel": "03-5596231",
        "lat": 24.879855,
        "lon": 121.007558
    },
    {
        "id": 700,
        "title": "新盛輪業股份有限公司",
        "address": "新竹縣竹北市鹿場里1鄰福興東路2段9號",
        "city": "新竹",
        "brand": "光陽",
        "tel": "03-6582958",
        "lat": 24.817767,
        "lon": 121.0254392
    },
    {
        "id": 701,
        "title": "煒盛輪業股份有限公司",
        "address": "新竹縣竹北市福德里博愛街388號",
        "city": "新竹",
        "brand": "山葉",
        "tel": "03-6566635",
        "lat": 24.8366244,
        "lon": 121.008765
    },
    {
        "id": 702,
        "title": "立新機車修理行",
        "address": "新竹縣竹北市勝利六街110號",
        "city": "新竹",
        "brand": "山葉",
        "tel": "03-5503125",
        "lat": 24.8244913,
        "lon": 121.0274391
    },
    {
        "id": 703,
        "title": "榮全機車行",
        "address": "新竹市光華二街41號1樓",
        "city": "新竹",
        "brand": "光陽",
        "tel": "03-5352958",
        "lat": 24.8182673,
        "lon": 120.974842099999
    },
    {
        "id": 704,
        "title": "峨眉機車行",
        "address": "新竹縣峨眉鄉峨眉村7鄰峨眉街71號",
        "city": "新竹",
        "brand": "三陽",
        "tel": "03-5800750",
        "lat": 24.6885709,
        "lon": 121.018587
    },
    {
        "id": 705,
        "title": "鑫豐車業有限公司",
        "address": "新竹市東區光復路一段679號",
        "city": "新竹",
        "brand": "山葉",
        "tel": "03-5773475",
        "lat": 24.7874976,
        "lon": 121.009457099999
    },
    {
        "id": 706,
        "title": "福明車行",
        "address": "新竹市東區明湖路469號",
        "city": "新竹",
        "brand": "光陽",
        "tel": "03-5203330",
        "lat": 24.7824701,
        "lon": 120.9670759
    },
    {
        "id": 707,
        "title": "舜晟機車行",
        "address": "新竹市北區西大路514號",
        "city": "新竹",
        "brand": "三陽",
        "tel": "03-5283901",
        "lat": 24.8053432,
        "lon": 120.9632317
    },
    {
        "id": 708,
        "title": "雙宏機車行",
        "address": "新竹市東區建華里寶山路5號",
        "city": "新竹",
        "brand": "三陽",
        "tel": "03-5252791",
        "lat": 24.7942837,
        "lon": 120.9732741
    },
    {
        "id": 709,
        "title": "銘祥機車行",
        "address": "新竹市東區中華路一段232號",
        "city": "新竹",
        "brand": "台鈴",
        "tel": "03-5321648",
        "lat": 24.8134927,
        "lon": 120.9903225
    },
    {
        "id": 710,
        "title": "進財輪業有限公司",
        "address": "新竹市東區中華路二段593號",
        "city": "新竹",
        "brand": "山葉",
        "tel": "03-5213550",
        "lat": 24.7993039,
        "lon": 120.967491399999
    },
    {
        "id": 711,
        "title": "欣益車業有限公司",
        "address": "新竹市中華路三段3號一樓",
        "city": "新竹",
        "brand": "比雅久",
        "tel": "03-5254624",
        "lat": 24.7960115,
        "lon": 120.958398999999
    },
    {
        "id": 712,
        "title": "協榮機車行",
        "address": "新竹市東區光復路二段217號",
        "city": "新竹",
        "brand": "台鈴",
        "tel": "03-5712045",
        "lat": 24.7994563,
        "lon": 120.9913154
    },
    {
        "id": 713,
        "title": "椿騏輪業股份有限公司",
        "address": "新竹市東南街116號",
        "city": "新竹",
        "brand": "山葉",
        "tel": "03-5627286",
        "lat": 24.7976848,
        "lon": 120.9737287
    },
    {
        "id": 714,
        "title": "三朧機車有限公司",
        "address": "新竹市東區光復路二段339號",
        "city": "新竹",
        "brand": "三陽",
        "tel": "03-5711070",
        "lat": 24.8009473,
        "lon": 120.9868579
    },
    {
        "id": 715,
        "title": "金祥車業有限公司",
        "address": "新竹市東區西大路526號",
        "city": "新竹",
        "brand": "光陽",
        "tel": "03-5240622",
        "lat": 24.8055186,
        "lon": 120.963077399999
    },
    {
        "id": 716,
        "title": "振益車行",
        "address": "新竹市北區經國路二段626號",
        "city": "新竹",
        "brand": "光陽",
        "tel": "03-5266555",
        "lat": 24.801484,
        "lon": 120.954032999999
    },
    {
        "id": 717,
        "title": "石井機車精品店",
        "address": "新竹市光復路一段1號",
        "city": "新竹",
        "brand": "山葉",
        "tel": "03-5786008",
        "lat": 24.7808773,
        "lon": 121.0263253
    },
    {
        "id": 718,
        "title": "凱竣車業有限公司",
        "address": "新竹市中正路241號1樓",
        "city": "新竹",
        "brand": "台鈴",
        "tel": "03-5346566",
        "lat": 24.8120927,
        "lon": 120.964272299999
    },
    {
        "id": 719,
        "title": "全德機車行",
        "address": "新竹市中華路2段550、552號",
        "city": "新竹",
        "brand": "光陽",
        "tel": "03-5224506",
        "lat": 24.8001243,
        "lon": 120.9685253
    },
    {
        "id": 720,
        "title": "永達機車行",
        "address": "新竹市中華路4段719號1樓",
        "city": "新竹",
        "brand": "光陽",
        "tel": "03-5387520",
        "lat": 24.7887162,
        "lon": 120.9299951
    },
    {
        "id": 721,
        "title": "興源機車行",
        "address": "新竹市中華路5段864號",
        "city": "新竹",
        "brand": "三陽",
        "tel": "03-5374755",
        "lat": 24.7617423,
        "lon": 120.912446499999
    },
    {
        "id": 722,
        "title": "元久達車業商號",
        "address": "新竹市牛埔路170巷4號1F",
        "city": "新竹",
        "brand": "三陽",
        "tel": "03-5388229",
        "lat": 24.7998693,
        "lon": 120.951550399999
    },
    {
        "id": 723,
        "title": "松泰車業有限公司",
        "address": "新竹市北大路451號",
        "city": "新竹",
        "brand": "山葉",
        "tel": "03-5252298",
        "lat": 24.802223,
        "lon": 120.960273
    },
    {
        "id": 724,
        "title": "三福機車行",
        "address": "新竹市民族路212號",
        "city": "新竹",
        "brand": "台鈴",
        "tel": "03-5323311",
        "lat": 24.8096573,
        "lon": 120.9802224
    },
    {
        "id": 725,
        "title": "遠倫車業有限公司",
        "address": "新竹市光復路一段396號1樓",
        "city": "新竹",
        "brand": "光陽",
        "tel": "03-5788465",
        "lat": 24.7845256,
        "lon": 121.014930699999
    },
    {
        "id": 726,
        "title": "駿業車業",
        "address": "新竹市學府路357號1樓",
        "city": "新竹",
        "brand": "三陽",
        "tel": "03-5727049",
        "lat": 24.797278,
        "lon": 120.9853216
    },
    {
        "id": 727,
        "title": "亞特機車行",
        "address": "新竹市光華二街66-1號1F",
        "city": "新竹",
        "brand": "三陽",
        "tel": "03-5351355",
        "lat": 24.8191382,
        "lon": 120.975711499999
    },
    {
        "id": 728,
        "title": "德興振機車行",
        "address": "新竹市國華街33號1樓",
        "city": "新竹",
        "brand": "光陽",
        "tel": "03-5422063",
        "lat": 24.815178,
        "lon": 120.970620999999
    },
    {
        "id": 729,
        "title": "榮新車行",
        "address": "新竹市延平路1段495號",
        "city": "新竹",
        "brand": "光陽",
        "tel": "03-5221642",
        "lat": 24.8050094,
        "lon": 120.945325099999
    },
    {
        "id": 730,
        "title": "盛嘉車業有限公司",
        "address": "新竹市東大路1段6號",
        "city": "新竹",
        "brand": "三陽",
        "tel": "03-5260706",
        "lat": 24.8016243,
        "lon": 120.9770594
    },
    {
        "id": 731,
        "title": "進福車行",
        "address": "新竹市天府路二段33號1樓",
        "city": "新竹",
        "brand": "三陽",
        "tel": "03-5363273",
        "lat": 24.8396254,
        "lon": 120.9302172
    },
    {
        "id": 732,
        "title": "欣輪機車行",
        "address": "新竹市食品路199號1樓",
        "city": "新竹",
        "brand": "光陽",
        "tel": "03-5237916",
        "lat": 24.7964451,
        "lon": 120.9751893
    },
    {
        "id": 733,
        "title": "佳宏機車行",
        "address": "新竹市高峰路3號1F",
        "city": "新竹",
        "brand": "光陽",
        "tel": "03-5267741",
        "lat": 24.7941207,
        "lon": 120.9728353
    },
    {
        "id": 734,
        "title": "偉倫商行",
        "address": "新竹市中華路二段290號",
        "city": "新竹",
        "brand": "光陽",
        "tel": "03-5259377",
        "lat": 24.8045343,
        "lon": 120.9756843
    },
    {
        "id": 735,
        "title": "全富車行",
        "address": "新竹市光復路一段142號",
        "city": "新竹",
        "brand": "光陽",
        "tel": "03-5772285",
        "lat": 24.78172,
        "lon": 121.023176
    },
    {
        "id": 736,
        "title": "文榮車行",
        "address": "新竹市武陵路39號",
        "city": "新竹",
        "brand": "光陽",
        "tel": "03-5351041",
        "lat": 24.8176991,
        "lon": 120.9645179
    },
    {
        "id": 737,
        "title": "有順機車行",
        "address": "新竹市大庄路67號",
        "city": "新竹",
        "brand": "山葉",
        "tel": "03-5381350",
        "lat": 24.7898127,
        "lon": 120.9278332
    },
    {
        "id": 738,
        "title": "榮志機車行",
        "address": "新竹市明湖路426號",
        "city": "新竹",
        "brand": "光陽",
        "tel": "03-5206721",
        "lat": 24.7847233,
        "lon": 120.967533
    },
    {
        "id": 739,
        "title": "陞鴻機車行",
        "address": "新竹市光復路二段908號",
        "city": "新竹",
        "brand": "光陽",
        "tel": "03-5250185",
        "lat": 24.803014,
        "lon": 120.9816189
    },
    {
        "id": 740,
        "title": "立業機車行",
        "address": "新竹市南大路564號1樓",
        "city": "新竹",
        "brand": "山葉",
        "tel": "03-5614803",
        "lat": 24.7945441,
        "lon": 120.964207999999
    },
    {
        "id": 741,
        "title": "大慶機車行",
        "address": "新竹市光復路二段982號",
        "city": "新竹",
        "brand": "山葉",
        "tel": "03-5242359",
        "lat": 24.8036341,
        "lon": 120.9794127
    },
    {
        "id": 742,
        "title": "康樂車行",
        "address": "新竹市東大路三段369號",
        "city": "新竹",
        "brand": "山葉",
        "tel": "03-5369396",
        "lat": 24.836395,
        "lon": 120.943328
    },
    {
        "id": 743,
        "title": "順益車行",
        "address": "新竹市東門街21號",
        "city": "新竹",
        "brand": "光陽",
        "tel": "03-5259555",
        "lat": 24.8041237,
        "lon": 120.973702199999
    },
    {
        "id": 744,
        "title": "久益機車行",
        "address": "新竹市中山路383號",
        "city": "新竹",
        "brand": "光陽",
        "tel": "03-5238023",
        "lat": 24.8003113,
        "lon": 120.9583678
    },
    {
        "id": 745,
        "title": "金展機車行",
        "address": "新竹市光復路一段274號",
        "city": "新竹",
        "brand": "山葉",
        "tel": "03-6686009",
        "lat": 24.7822741,
        "lon": 121.020244999999
    },
    {
        "id": 746,
        "title": "增鴻機車行",
        "address": "新竹市金山十街10號",
        "city": "新竹",
        "brand": "光陽",
        "tel": "03-6686211",
        "lat": 24.778158,
        "lon": 121.021416
    },
    {
        "id": 747,
        "title": "詠順車料行",
        "address": "新竹市東區民族路124之1號",
        "city": "新竹",
        "brand": "光陽",
        "tel": "03-5328137",
        "lat": 24.8079594,
        "lon": 120.977464699999
    },
    {
        "id": 748,
        "title": "盛興機車行",
        "address": "新竹市東區食品路376號",
        "city": "新竹",
        "brand": "光陽",
        "tel": "03-5618612",
        "lat": 24.7939397,
        "lon": 120.969170299999
    },
    {
        "id": 749,
        "title": "萬人機車行",
        "address": "新竹市西大路876號",
        "city": "新竹",
        "brand": "光陽",
        "tel": "03-5331815",
        "lat": 24.8118666,
        "lon": 120.955742699999
    },
    {
        "id": 750,
        "title": "銘興機車行",
        "address": "新竹市光復路二段72號",
        "city": "新竹",
        "brand": "三陽",
        "tel": "03-5750825",
        "lat": 24.7921181,
        "lon": 121.0032355
    },
    {
        "id": 751,
        "title": "川岩工坊",
        "address": "新竹市民主路14號",
        "city": "新竹",
        "brand": "山葉",
        "tel": "03-5337117",
        "lat": 24.8089041,
        "lon": 120.981418999999
    },
    {
        "id": 752,
        "title": "福興機車行",
        "address": "新竹市中華路五段684之2號",
        "city": "新竹",
        "brand": "光陽",
        "tel": "03-5370399",
        "lat": 24.766664,
        "lon": 120.914935
    },
    {
        "id": 753,
        "title": "龍海車業行",
        "address": "新竹市延平路三段390號1F",
        "city": "新竹",
        "brand": "光陽",
        "tel": "03-5369877",
        "lat": 24.8367855,
        "lon": 120.9314213
    },
    {
        "id": 754,
        "title": "群民機車行",
        "address": "新竹市光華一街15號",
        "city": "新竹",
        "brand": "三陽",
        "tel": "03-5315129",
        "lat": 24.8158394,
        "lon": 120.9735848
    },
    {
        "id": 755,
        "title": "尚好機車行",
        "address": "新竹市民生路285號",
        "city": "新竹",
        "brand": "山葉",
        "tel": "03-5152456",
        "lat": 24.8132405,
        "lon": 120.974484999999
    },
    {
        "id": 756,
        "title": "程宏車業行",
        "address": "新竹市自由路86號",
        "city": "新竹",
        "brand": "三陽",
        "tel": "03-5320933",
        "lat": 24.813959,
        "lon": 120.980357599999
    },
    {
        "id": 757,
        "title": "昱宏機車行",
        "address": "新竹市金山十一街68號",
        "city": "新竹",
        "brand": "山葉",
        "tel": "03-5770392",
        "lat": 24.7772384,
        "lon": 121.021725899999
    },
    {
        "id": 758,
        "title": "順意機車行",
        "address": "花蓮縣玉里鎮中山路1段108-1號、110號",
        "city": "花蓮",
        "brand": "三陽",
        "tel": "03-8882523",
        "lat": 23.329169,
        "lon": 121.316765
    },
    {
        "id": 759,
        "title": "連發車業行",
        "address": "花蓮縣吉安鄉中山路二段96號",
        "city": "花蓮",
        "brand": "三陽",
        "tel": "03-8522278",
        "lat": 23.9725165,
        "lon": 121.5807157
    },
    {
        "id": 760,
        "title": "慶泰車業有限公司",
        "address": "花蓮縣吉安鄉中正路1段154、156-1號",
        "city": "花蓮",
        "brand": "光陽",
        "tel": "03-8535191",
        "lat": 23.9649709,
        "lon": 121.5906482
    },
    {
        "id": 761,
        "title": "榮泰車業",
        "address": "花蓮縣吉安鄉中山路三段380號",
        "city": "花蓮",
        "brand": "山葉",
        "tel": "03-8533008",
        "lat": 23.9788663,
        "lon": 121.5691048
    },
    {
        "id": 762,
        "title": "正鴻車業行",
        "address": "花蓮縣吉安鄉仁里五街32號",
        "city": "花蓮",
        "brand": "光陽",
        "tel": "03-8529326",
        "lat": 23.9688307,
        "lon": 121.5913991
    },
    {
        "id": 763,
        "title": "銘曜車業",
        "address": "花蓮市中山路90號",
        "city": "花蓮",
        "brand": "山葉",
        "tel": "03-8331012",
        "lat": 23.9753024,
        "lon": 121.6108852
    },
    {
        "id": 764,
        "title": "新輪車業",
        "address": "花蓮縣花蓮市國魂裡建國路316號1樓",
        "city": "花蓮",
        "brand": "山葉",
        "tel": "03-8354961",
        "lat": 23.9844624,
        "lon": 121.5984106
    },
    {
        "id": 765,
        "title": "新長興機車行",
        "address": "花蓮縣吉安鄉中山路三段223號",
        "city": "花蓮",
        "brand": "山葉",
        "tel": "03-8421728",
        "lat": 23.9771735,
        "lon": 121.5719667
    },
    {
        "id": 766,
        "title": "立大車業行",
        "address": "97054花蓮縣花蓮市中山路410-4號",
        "city": "花蓮",
        "brand": "光陽",
        "tel": "03-8328813",
        "lat": 23.8480155,
        "lon": 121.4968629
    },
    {
        "id": 767,
        "title": "巨豐機車行",
        "address": "花蓮縣吉安鄉南華村吉安路5段271號",
        "city": "花蓮",
        "brand": "光陽",
        "tel": "03-8527357",
        "lat": 23.9537682,
        "lon": 121.5505143
    },
    {
        "id": 768,
        "title": "時代機車行",
        "address": "97073花蓮縣花蓮市中山路646號",
        "city": "花蓮",
        "brand": "光陽",
        "tel": "03-8561999",
        "lat": 23.993671,
        "lon": 121.596674
    },
    {
        "id": 769,
        "title": "中一車業行",
        "address": "97073花蓮市中山路545號",
        "city": "花蓮",
        "brand": "山葉",
        "tel": "03-8352828",
        "lat": 23.9813408,
        "lon": 121.5642864
    },
    {
        "id": 770,
        "title": "宏偉車業行",
        "address": "97068花蓮市國富里富國路82號",
        "city": "花蓮",
        "brand": "光陽",
        "tel": "03-8575736",
        "lat": 23.9903463,
        "lon": 121.594804
    },
    {
        "id": 771,
        "title": "晉良車業行",
        "address": "花蓮縣花蓮市中正路314號",
        "city": "花蓮",
        "brand": "光陽",
        "tel": "03-8322968",
        "lat": 23.9735884,
        "lon": 121.6020461
    },
    {
        "id": 772,
        "title": "建宏機車行",
        "address": "花蓮縣花蓮市中正路353號",
        "city": "花蓮",
        "brand": "光陽",
        "tel": "03-8358942",
        "lat": 23.9740339,
        "lon": 121.6022507
    },
    {
        "id": 773,
        "title": "聯豐機車行",
        "address": "花蓮縣花蓮市中美11街80號",
        "city": "花蓮",
        "brand": "台鈴",
        "tel": "03-8226765",
        "lat": 23.9899631,
        "lon": 121.6236995
    },
    {
        "id": 774,
        "title": "洺奇機車行",
        "address": "花蓮縣吉安鄉北昌村自強路431號1樓",
        "city": "花蓮",
        "brand": "台鈴",
        "tel": "03-8573852",
        "lat": 23.9840867,
        "lon": 121.5899299
    },
    {
        "id": 775,
        "title": "信成機車行",
        "address": "花蓮縣花蓮市中原路365號",
        "city": "花蓮",
        "brand": "光陽",
        "tel": "03-8326772",
        "lat": 23.968488,
        "lon": 121.5997533
    },
    {
        "id": 776,
        "title": "慶欣機車行",
        "address": "花蓮縣花蓮市中華路220號",
        "city": "花蓮",
        "brand": "山葉",
        "tel": "03-8329638",
        "lat": 23.9754778,
        "lon": 121.6015295
    },
    {
        "id": 777,
        "title": "泰多車業行",
        "address": "花蓮縣花蓮市主力里和平路511號1樓",
        "city": "花蓮",
        "brand": "光陽",
        "tel": "03-8325555",
        "lat": 23.9766933,
        "lon": 121.6011596
    },
    {
        "id": 778,
        "title": "三統車業行",
        "address": "花蓮縣花蓮市中華路469之6號1樓",
        "city": "花蓮",
        "brand": "三陽",
        "tel": "03-8530759",
        "lat": 23.9740734,
        "lon": 121.5895405
    },
    {
        "id": 779,
        "title": "慶昌機車行",
        "address": "花蓮縣花蓮市南京街152號",
        "city": "花蓮",
        "brand": "三陽",
        "tel": "03-8354395",
        "lat": 23.9732189,
        "lon": 121.6044331
    },
    {
        "id": 780,
        "title": "詠聖車業",
        "address": "花蓮縣花蓮市建國路88、90、92號",
        "city": "花蓮",
        "brand": "山葉",
        "tel": "03-8330037",
        "lat": 23.983606,
        "lon": 121.6033565
    },
    {
        "id": 781,
        "title": "明安機車行",
        "address": "花蓮縣新城鄉新興路12-1號",
        "city": "花蓮",
        "brand": "台鈴",
        "tel": "03-8611608",
        "lat": 23.982339,
        "lon": 121.6139849
    },
    {
        "id": 782,
        "title": "安輪機車行",
        "address": "花蓮縣新城鄉嘉里路26號",
        "city": "花蓮",
        "brand": "光陽",
        "tel": "03-8267692",
        "lat": 24.0186433,
        "lon": 121.6098778
    },
    {
        "id": 783,
        "title": "鴻輪機車行",
        "address": "花蓮縣新城鄉嘉里路12號",
        "city": "花蓮",
        "brand": "三陽",
        "tel": "03-8263812",
        "lat": 24.0183762,
        "lon": 121.6100559
    },
    {
        "id": 784,
        "title": "富泰車業行",
        "address": "花蓮縣瑞穗鄉中華路6號",
        "city": "花蓮",
        "brand": "三陽",
        "tel": "03-8870802",
        "lat": 23.498411,
        "lon": 121.377823
    },
    {
        "id": 785,
        "title": "中福機車行",
        "address": "花蓮市榮正街147號",
        "city": "花蓮",
        "brand": "山葉",
        "tel": "03-8354538",
        "lat": 23.974154,
        "lon": 121.5969378
    },
    {
        "id": 786,
        "title": "豐源機車行",
        "address": "花蓮縣鳳林鎮中和路176號",
        "city": "花蓮",
        "brand": "山葉",
        "tel": "03-8762474",
        "lat": 23.748135,
        "lon": 121.450982
    },
    {
        "id": 787,
        "title": "皇家車業行",
        "address": "花蓮縣玉里鎮中華路307號",
        "city": "花蓮",
        "brand": "光陽",
        "tel": "03-8882748",
        "lat": 23.34116,
        "lon": 121.316408
    },
    {
        "id": 788,
        "title": "永全機車行",
        "address": "花蓮縣光復鄉中山路二段155-1號",
        "city": "花蓮",
        "brand": "光陽",
        "tel": "03-8700476",
        "lat": 23.6644692,
        "lon": 121.4228301
    },
    {
        "id": 789,
        "title": "永富機車行",
        "address": "花蓮縣吉安鄉中山路二段161號1樓",
        "city": "花蓮",
        "brand": "光陽",
        "tel": "03-8520845",
        "lat": 23.9718188,
        "lon": 121.5814788
    },
    {
        "id": 790,
        "title": "新弘輝車業行",
        "address": "花蓮縣吉安鄉仁和村海岸路694號",
        "city": "花蓮",
        "brand": "三陽",
        "tel": "03-8421961",
        "lat": 23.9392367,
        "lon": 121.5864143
    },
    {
        "id": 791,
        "title": "逸陽車業股份有限公司",
        "address": "花蓮市建國路168號",
        "city": "花蓮",
        "brand": "三陽",
        "tel": "03-8321980",
        "lat": 23.6588256,
        "lon": 121.4537865
    },
    {
        "id": 792,
        "title": "升源機車行",
        "address": "花蓮縣吉安鄉自強路456號",
        "city": "花蓮",
        "brand": "光陽",
        "tel": "03-8570447",
        "lat": 23.9846457,
        "lon": 121.5905413
    },
    {
        "id": 793,
        "title": "金榮機車行",
        "address": "花蓮縣吉安鄉建國路二段161號",
        "city": "花蓮",
        "brand": "光陽",
        "tel": "03-8577730",
        "lat": 23.9917077,
        "lon": 121.5778761
    },
    {
        "id": 794,
        "title": "成泰機車行",
        "address": "花蓮縣吉安鄉建國路二段179號",
        "city": "花蓮",
        "brand": "山葉",
        "tel": "03-8576600",
        "lat": 23.9918879,
        "lon": 121.5774882
    },
    {
        "id": 795,
        "title": "民豐車業行",
        "address": "花蓮縣花蓮市中山路413-1號",
        "city": "花蓮",
        "brand": "山葉",
        "tel": "03-8337430",
        "lat": 23.9823409,
        "lon": 121.604971
    },
    {
        "id": 796,
        "title": "俊達車業行",
        "address": "花蓮縣花蓮市中正路258-2號",
        "city": "花蓮",
        "brand": "三陽",
        "tel": "03-8347107",
        "lat": 23.9728681,
        "lon": 121.60099
    },
    {
        "id": 797,
        "title": "永發輪機車行",
        "address": "花蓮縣花蓮市尚志路55-1號",
        "city": "花蓮",
        "brand": "光陽",
        "tel": "03-8222633",
        "lat": 24.0026694,
        "lon": 121.6135467
    },
    {
        "id": 798,
        "title": "建德機車行",
        "address": "花蓮縣花蓮市府前路370號",
        "city": "花蓮",
        "brand": "光陽",
        "tel": "03-8228606",
        "lat": 23.9974914,
        "lon": 121.6213309
    },
    {
        "id": 799,
        "title": "順良機車行",
        "address": "花蓮縣花蓮市節約街31號",
        "city": "花蓮",
        "brand": "光陽",
        "tel": "03-8325085",
        "lat": 23.9784144,
        "lon": 121.606941
    },
    {
        "id": 800,
        "title": "幸輪機車行",
        "address": "花蓮縣富里鄉萬寧村鎮寧158號",
        "city": "花蓮",
        "brand": "台鈴",
        "tel": "03-8861193",
        "lat": 23.252394,
        "lon": 121.2974565
    },
    {
        "id": 801,
        "title": "吉輪機車行",
        "address": "花蓮縣新城鄉北埔村180號",
        "city": "花蓮",
        "brand": "山葉",
        "tel": "03-8267657",
        "lat": 24.0331191,
        "lon": 121.6105449
    },
    {
        "id": 802,
        "title": "大協興機車行",
        "address": "花蓮縣新城鄉康樂村康樂路178號",
        "city": "花蓮",
        "brand": "台鈴",
        "tel": "03-8263405",
        "lat": 24.0479042,
        "lon": 121.6046613
    },
    {
        "id": 803,
        "title": "宏昌機車行",
        "address": "花蓮縣瑞穗鄉中正南路一段75號",
        "city": "花蓮",
        "brand": "光陽",
        "tel": "03-8872768",
        "lat": 23.4947746,
        "lon": 121.3776233
    },
    {
        "id": 804,
        "title": "弘興機車行",
        "address": "花蓮縣壽豐鄉中山路二段226號1F",
        "city": "花蓮",
        "brand": "山葉",
        "tel": "03-8661288",
        "lat": 23.906277,
        "lon": 121.5298354
    },
    {
        "id": 805,
        "title": "宏展機車行",
        "address": "花蓮縣壽豐鄉志學村中山路三段10號",
        "city": "花蓮",
        "brand": "三陽",
        "tel": "03-8661377",
        "lat": 23.9073901,
        "lon": 121.530401
    },
    {
        "id": 806,
        "title": "皇冠輪業行",
        "address": "花蓮縣鳳林鎮中正路二段195號",
        "city": "花蓮",
        "brand": "光陽",
        "tel": "03-8763393",
        "lat": 23.7488941,
        "lon": 121.449747
    },
    {
        "id": 807,
        "title": "台羚機車行",
        "address": "花蓮縣豐濱鄉豐濱村三民路80號",
        "city": "花蓮",
        "brand": "光陽",
        "tel": "03-8791173",
        "lat": 23.5984293,
        "lon": 121.5218097
    },
    {
        "id": 808,
        "title": "福錄機車行",
        "address": "花蓮縣玉里鎮中城里8鄰光復路47號",
        "city": "花蓮",
        "brand": "台鈴",
        "tel": "03-8885270",
        "lat": 23.3259271,
        "lon": 121.3169891
    },
    {
        "id": 809,
        "title": "國蓮機車行",
        "address": "花蓮市國聯五路2-1號",
        "city": "花蓮",
        "brand": "山葉",
        "tel": "03-8349349",
        "lat": 23.9882879,
        "lon": 121.606364
    },
    {
        "id": 810,
        "title": "白馬機車行",
        "address": "花蓮市國安里1鄰中山路332號",
        "city": "花蓮",
        "brand": "山葉",
        "tel": "03-8320429",
        "lat": 23.9819945,
        "lon": 121.6055112
    },